~Version ---------------------------------------------------
VERS.   2.0 : CWLS log ASCII Standard -VERSION 2.0
WRAP.    NO : One line per depth step
DLM . SPACE : Column Data Section Delimiter
~Well ------------------------------------------------------
STRT.m     0.0 : START DEPTH
STOP.m 1282.68 : STOP DEPTH
STEP.m    26.0 : STEP
NULL. -9999.25 : NULL VALUE
COMP.          : COMPANY
WELL.          : WELL
FLD .          : FIELD
LOC .          : LOCATION
PROV.          : PROVINCE
CNTY.          : COUNTY
STAT.          : STATE
CTRY.          : COUNTRY
SRVC.          : SERVICE COMPANY
DATE.          : DATE
UWI .          : UNIQUE WELL ID
API .          : API NUMBER
~Curve Information -----------------------------------------
DEPT       .m    DEPTH : 
AC         .us/ft   AC : 
ACS        .us/ft  ACS : 
BS         .in      BS : 
CALI       .in    CALI : 
CALI_2     .in    CALI : 
DEN        .g/cm3  DEN : 
DT         .us/ft   DT : 
DTS        .us/ft  DTS : 
GR         .gAPI    GR : 
NEU        ._      NEU : 
PHIE       .m3/m3 PHIE : 
PHIT       .m3/m3 PHIT : 
RDEP       .ohm.m RDEP : 
RHOB       .g/cm3 RHOB : 
SWE        ._      SWE : 
VSH        ._      VSH : 
lithology  .           : 
core_phie_1.%          : 
core_phie_2.%          : 
core_phie_3.%          : 
core_phie_4.%          : 
core_phie_5.%          : 
~Params ----------------------------------------------------
~Other -----------------------------------------------------
~ASCII -----------------------------------------------------
# ...
  1232.7636   79.62285        nan        8.5    8.56582    8.56484    2.53363   79.62259        nan   105.8044     0.1386     0.0267     0.0841    7.54188    2.53364     0.8458     0.6275      shale        nan        nan        nan        nan        nan
  1233.3732   82.75592        nan        8.5     8.5068    8.50361    2.52156   82.75742        nan   110.4509    0.16261     0.0474     0.1061     6.2696    2.52154     0.7702     0.6418      shale        nan        nan        nan        nan        nan
  1233.9828   76.23949        nan        8.5    8.63298    8.61534     2.5154   76.23816        nan   93.43868     0.1043     0.0586     0.0873    6.85954    2.51542     0.9548     0.3134       silt        nan        nan        nan        nan        nan
  1234.5924   87.19729        nan        8.5    8.52958    8.54136     2.4959   87.19844        nan  112.66507    0.17368     0.0541      0.116    5.21627     2.4959     0.7824     0.6767      shale        nan        nan        nan        nan        nan
   1235.202    81.1016        nan        8.5    8.55334    8.54937    2.47714   81.10089        nan   101.4125    0.14971     0.0884      0.126    5.57598    2.47713      0.742     0.4115       silt        nan        nan        nan        nan        nan
  1235.8116   82.75651        nan        8.5    8.55153    8.55886    2.47049   82.75639        nan  108.98975    0.14769     0.0818     0.1214    5.31092    2.47049      0.781     0.4323       silt        nan        nan        nan        nan        nan
  1236.4212   82.96975        nan        8.5    8.50992    8.50875    2.51703    82.9697        nan  111.60818    0.16467     0.0424     0.1028    5.76425    2.51703     0.8222     0.6604      shale        nan        nan        nan        nan        nan
  1237.0308   85.62396        nan        8.5    8.56583    8.55672     2.5167    85.6241        nan  121.80245    0.18372     0.0321     0.1046    5.14512     2.5167     0.8548     0.7923      shale        nan        nan        nan        nan        nan
  1237.6404   87.50794        nan        8.5    8.45452    8.45016    2.53403   87.50806        nan  108.86054    0.18433     0.0224     0.0977    4.89579    2.53403     0.9272     0.8225      shale        nan        nan        nan        nan        nan
    1238.25   89.04212        nan        8.5    8.49879    8.49375    2.54306   89.04227        nan  103.07441    0.19066     0.0174     0.0842     4.8528    2.54307        1.0     0.7307      shale        nan        nan        nan        nan        nan
  1238.8596   88.88293        nan        8.5    8.53641    8.53667    2.56141     88.883        nan  106.87942    0.20295        0.0     0.0742     4.8978    2.56142        1.0     0.8114      shale        nan        nan        nan        nan        nan
  1239.4692   86.05894        nan        8.5    8.54452    8.53125    2.51735   86.05771        nan  108.01995    0.20309     0.0357     0.1095    4.98952    2.51734     0.8366     0.8072      shale        nan        nan        nan        nan        nan
  1240.0788   79.67209        nan        8.5    8.53448    8.53813    2.50593   79.67191        nan  106.65462    0.15582     0.0482     0.1037    5.93523    2.50593     0.8095     0.6075      shale        nan        nan        nan        nan        nan
  1240.6884   79.94691        nan        8.5    8.63221       8.63    2.52376   79.94696        nan  100.65877    0.14358     0.0459     0.0973    6.95767    2.52376     0.7938     0.5618      shale        nan        nan        nan        nan        nan
    1241.15   76.99986        nan        8.5    8.58638    8.57939    2.47072   76.99864        nan  101.53706    0.12472    0.09868    0.12169    7.20487    2.47072    0.70958    0.25166       silt        nan        nan        nan        nan        nan
   1241.298   74.57404        nan        8.5    8.57698    8.57576    2.47288   74.57224        nan   97.60493     0.1186     0.0946     0.1181    7.37602    2.47288     0.7191     0.2572       silt        nan        nan        nan        nan        nan
  1241.9076   71.82328        nan        8.5    8.54544    8.55708    2.50704   71.82336        nan   95.56629    0.09982     0.0697     0.0966    8.56983    2.50705     0.7875     0.2936       silt        nan        nan        nan        nan        nan
  1242.5172    81.5625        nan        8.5     8.5117    8.50602    2.49381   81.56358        nan   106.8067    0.16767     0.0653     0.1211    5.87458    2.49379     0.7159     0.6099      shale        nan        nan        nan        nan        nan
  1243.1268   80.07229        nan        8.5    8.56012    8.56471    2.51852   80.07003        nan   98.31152    0.12738     0.0491     0.0943    7.11445    2.51853     0.8188     0.4937       silt        nan        nan        nan        nan        nan
  1243.7364   81.46655        nan        8.5    8.52543    8.51394    2.53483   81.46712        nan  106.88482    0.16483     0.0225      0.093    6.32849    2.53484     0.8449     0.7711      shale        nan        nan        nan        nan        nan
   1244.346   81.04587        nan        8.5    8.55017    8.54854    2.49294   81.04581        nan  109.81752    0.15034      0.067     0.1143    6.85686    2.49294     0.7067     0.5177      shale        nan        nan        nan        nan        nan
  1244.9556   80.30279        nan        8.5     8.6297    8.63463    2.46009   80.30296        nan  108.65696    0.15454     0.0936     0.1322    6.14282    2.46009     0.6744     0.4228       silt        nan        nan        nan        nan        nan
  1245.5652   81.85948        nan        8.5    8.50858    8.50413    2.47195   81.85941        nan  104.13655    0.16243     0.0897     0.1321    5.10466    2.47193     0.7327     0.4636       silt        nan        nan        nan        nan        nan
  1246.1748   89.25317        nan        8.5    8.52787    8.56125    2.31055   89.25518        nan   98.07275    0.21513     0.2053     0.2216    2.01765    2.31055      0.775     0.1784       sand        nan        nan        nan        nan        nan
  1246.7844   89.39538        nan        8.5    8.55938    8.57187    2.35622   89.39277        nan   95.06773    0.15645      0.173     0.1755    2.72132    2.35626     0.8657     0.0273       sand        nan        nan        nan        nan        nan
   1247.394   77.13051  164.68993        8.5    8.55882    8.56822    2.50231   77.13168  164.69078  112.13042    0.13672     0.0658     0.1079    5.39346     2.5023     0.8484     0.4599       silt        nan        nan        nan        nan        nan
  1248.0036   85.66183  177.27492        8.5     8.5071    8.51042    2.51563   85.66244  177.27568  120.63626    0.18349     0.0313     0.1061    4.82139    2.51563      0.873     0.8185      shale        nan        nan        nan        nan        nan
  1248.6132   91.25217  178.59206        8.5    8.47209     8.4945    2.49691   91.25166  178.58897  123.57178    0.19904     0.0507     0.1201    4.59965    2.49691      0.806     0.7593      shale        nan        nan        nan        nan        nan
  1249.2228   82.16105  163.86038        8.5    8.47076    8.47875    2.49847   82.16108  163.85869  111.87884    0.15575     0.0625     0.1121    5.58692    2.49847     0.7908     0.5425      shale        nan        nan        nan        nan        nan
  1249.8324   81.14042  166.15573        8.5    8.47153    8.46656    2.51617   81.13988  166.15553  108.89652    0.14426     0.0486     0.0999    6.23577    2.51617     0.8197     0.5615      shale        nan        nan        nan        nan        nan
   1250.442   83.51962  168.65369        8.5    8.46206    8.46437     2.4921   83.51973  168.65584  119.61459    0.17082     0.0707     0.1136    5.02629     2.4921     0.8387     0.4695       silt        nan        nan        nan        nan        nan
  1251.0516   89.54337  178.20628        8.5    8.45254    8.44625    2.50079   89.54392  178.20651  120.87958    0.20083     0.0408     0.1186    5.44289    2.50079     0.7521      0.851      shale        nan        nan        nan        nan        nan
