~Version ---------------------------------------------------
VERS.   2.0 : CWLS log ASCII Standard -VERSION 2.0
WRAP.    NO : One line per depth step
DLM . SPACE : Column Data Section Delimiter
~Well ------------------------------------------------------
STRT.m     0.0 : START DEPTH
STOP.m 1282.68 : STOP DEPTH
STEP.m    26.0 : STEP
NULL. -9999.25 : NULL VALUE
COMP.          : COMPANY
WELL.          : WELL
FLD .          : FIELD
LOC .          : LOCATION
PROV.          : PROVINCE
CNTY.          : COUNTY
STAT.          : STATE
CTRY.          : COUNTRY
SRVC.          : SERVICE COMPANY
DATE.          : DATE
UWI .          : UNIQUE WELL ID
API .          : API NUMBER
~Curve Information -----------------------------------------
DEPT       .m    DEPTH : 
AC         .us/ft   AC : 
ACS        .us/ft  ACS : 
BS         .in      BS : 
CALI       .in    CALI : 
CALI_2     .in    CALI : 
DEN        .g/cm3  DEN : 
DT         .us/ft   DT : 
DTS        .us/ft  DTS : 
GR         .gAPI    GR : 
NEU        ._      NEU : 
PHIE       .m3/m3 PHIE : 
PHIT       .m3/m3 PHIT : 
RDEP       .ohm.m RDEP : 
RHOB       .g/cm3 RHOB : 
SWE        ._      SWE : 
VSH        ._      VSH : 
lithology  .           : 
core_phie_1.%          : 
core_phie_2.%          : 
core_phie_3.%          : 
core_phie_4.%          : 
core_phie_5.%          : 
~Params ----------------------------------------------------
~Other -----------------------------------------------------
~ASCII -----------------------------------------------------
# ...
  1251.6612    83.8736   170.8205        8.5    8.45255    8.47739    2.48667   83.87325  170.81961  106.76784    0.16465     0.0681     0.1189    5.68124    2.48667     0.7444     0.5559      shale        nan        nan        nan        nan        nan
  1252.2708   83.56506  169.41261        8.5     8.3494    8.34938    2.54667   83.56602  169.41418  117.80649    0.15322     0.0194     0.0836    5.30177    2.54668        1.0     0.7015      shale        nan        nan        nan        nan        nan
  1252.8804   91.36006  180.41158        8.5    8.39002     8.4075    2.50481   91.36065  180.41194    128.008    0.20542     0.0346     0.1155    4.11408    2.50481     0.8876     0.8846      shale        nan        nan        nan        nan        nan
    1253.49   87.40838  178.12376        8.5    8.51705      8.515    2.47523   87.40749  178.12248   125.1407    0.21963     0.0563     0.1306    3.96628    2.47522     0.8106     0.8124      shale        nan        nan        nan        nan        nan
  1254.0996   86.33558  177.98697        8.5    8.55579    8.55714     2.4839   86.33568  177.98691  131.30901    0.19639       0.05     0.1222     4.3952    2.48391     0.8129     0.7892      shale        nan        nan        nan        nan        nan
  1254.7092   90.71222  178.86641        8.5    8.57527    8.57875     2.5214   90.71336   178.8669  122.14569    0.21093     0.0257     0.1084    4.37221    2.52139     0.9097     0.9041      shale        nan        nan        nan        nan        nan
  1255.3188   89.45203  173.59763        8.5    8.56872    8.56682    2.48162   89.45158  173.59666  118.73541    0.19829      0.064     0.1288    5.08205    2.48162     0.7237     0.7084      shale        nan        nan        nan        nan        nan
  1255.9284   79.32436   156.6114        8.5      8.558    8.55058    2.49115   79.32335  156.61012  104.34908    0.14213     0.0684     0.1116    6.71025    2.49115     0.7356     0.4726       silt        nan        nan        nan        nan        nan
   1256.538   78.93169  158.25894        8.5    8.57748    8.57214    2.49956   78.93216  158.26001  119.02444    0.15483     0.0574     0.1113    6.09031    2.49956     0.7548     0.5891      shale        nan        nan        nan        nan        nan
  1257.1476   84.85629  169.28851        8.5    8.54471    8.56375    2.53896   84.85685  169.28944  120.85345    0.17358     0.0167     0.0927    6.00683    2.53897     0.8719     0.8309      shale        nan        nan        nan        nan        nan
  1257.7572   79.06679        nan        8.5    8.56592    8.57633    2.48833    79.0658        nan  115.21584     0.1343      0.084     0.1151    5.56607    2.48832     0.8186     0.3404       silt        nan        nan        nan        nan        nan
  1258.3668    81.2484        nan        8.5    8.46643    8.46321    2.46935    81.2505        nan  109.98253    0.13012     0.0968     0.1278    6.42011    2.46934     0.6948      0.339       silt        nan        nan        nan        nan        nan
  1258.9764   80.84521        nan        8.5    8.47865     8.4775    2.53063   80.84507        nan  118.82344     0.1429     0.0334     0.0899    5.94039    2.53064     0.9043     0.6176      shale        nan        nan        nan        nan        nan
   1259.586   84.27603        nan        8.5    8.47973    8.48464    2.55882   84.27588        nan  117.03893    0.16544     0.0052     0.0808    5.22338    2.55882        1.0     0.8263      shale        nan        nan        nan        nan        nan
  1260.1956    82.6629        nan        8.5    8.49854    8.49857    2.53797   82.66222        nan  118.34165    0.15889     0.0265     0.0914    5.52596    2.53797     0.9165     0.7093      shale        nan        nan        nan        nan        nan
  1260.8052    83.5062        nan        8.5    8.49566    8.50208    2.53541   83.50693        nan  119.68983    0.15327     0.0264     0.0921    5.77644    2.53541      0.891      0.718      shale        nan        nan        nan        nan        nan
  1261.4148   86.14001        nan        8.5    8.52814    8.53725    2.55027   86.13995        nan  118.47425     0.1835     0.0105     0.0902    4.97415    2.55027     0.9842     0.8714      shale        nan        nan        nan        nan        nan
  1262.0244   86.36675        nan        8.5    8.46159    8.45969    2.53469   86.36639        nan   125.1534    0.18815     0.0193     0.0977     4.9115    2.53469      0.927     0.8575      shale        nan        nan        nan        nan        nan
   1262.634   84.28114        nan        8.5     8.5044      8.484     2.3833   84.27975        nan  105.34599    0.16931     0.1665     0.1817    2.87937    2.38328     0.7847     0.1658       sand        nan        nan        nan        nan        nan
  1263.2436   70.37815        nan        8.5    8.44039    8.43937    2.49285   70.37832        nan   83.01699    0.08041     0.0831     0.0945    7.67695    2.49286     0.9128     0.1246       sand        nan        nan        nan        nan        nan
  1263.8532    81.2613        nan        8.5    8.47745    8.46312    2.51675   81.26161        nan  111.04214    0.13738     0.0436     0.0976    6.49008    2.51676     0.8134     0.5898      shale        nan        nan        nan        nan        nan
  1264.4628   81.71429        nan        8.5     8.4758     8.4775     2.5446   81.71406        nan   113.9201    0.15948     0.0202     0.0889    6.36545     2.5446     0.8718     0.7512      shale        nan        nan        nan        nan        nan
  1265.0724   81.44282        nan        8.5      8.543    8.53175    2.48732   81.44289        nan  122.21949     0.1627     0.0662     0.1181     6.7189    2.48732     0.6854     0.5681      shale        nan        nan        nan        nan        nan
   1265.682   85.12386        nan        8.5    8.50523    8.51163    2.49955   85.12433        nan  126.41145    0.17581     0.0471     0.1118    5.72509    2.49956     0.7655     0.7072      shale        nan        nan        nan        nan        nan
  1266.2916   86.88007        nan        8.5    8.48785    8.49403    2.51068   86.88091        nan  125.55459    0.17916     0.0413     0.1081    5.20641    2.51068     0.8243     0.7313      shale        nan        nan        nan        nan        nan
  1266.9012   82.86613        nan        8.5    8.48432    8.49225    2.52766   82.86589        nan   120.7717    0.17232     0.0293     0.0975    5.54146    2.52766     0.8682     0.7456      shale        nan        nan        nan        nan        nan
  1267.5108   81.36767        nan        8.5    8.49368     8.4957    2.54403   81.36967        nan  114.96096    0.15641      0.023     0.0875     6.0489    2.54403     0.9065      0.705      shale        nan        nan        nan        nan        nan
  1268.1204   83.08966        nan        8.5    8.49521    8.49125    2.54527   83.08949        nan  114.32922    0.15951     0.0218     0.0882    5.42157    2.54526     0.9501     0.7261      shale        nan        nan        nan        nan        nan
    1268.73   82.88066        nan        8.5    8.51086    8.51313     2.5331   82.88067        nan  116.56392    0.16844     0.0259     0.0969    5.18855    2.53309     0.9017     0.7764      shale        nan        nan        nan        nan        nan
  1269.3396   88.47903        nan        8.5     8.5139    8.52125    2.53725    88.4799        nan  126.47182     0.1856     0.0222     0.1002    4.67465    2.53723     0.9305     0.8533      shale        nan        nan        nan        nan        nan
    1270.67        nan        nan        8.5    8.50243    8.51277    2.49163        nan        nan  122.96079    0.18092    0.06647    0.12314    5.35931    2.49161    0.73844    0.61934      shale        nan        nan        nan        nan        nan
    1282.68        nan        nan        8.5    8.51397    8.52256    2.50807        nan        nan  140.85313    0.14029    0.05426    0.10815    5.35345    2.50806    0.83138    0.58945      shale        nan        nan        nan        nan        nan
