~Version ---------------------------------------------------
VERS.   2.0 : CWLS log ASCII Standard -VERSION 2.0
WRAP.    NO : One line per depth step
DLM . SPACE : Column Data Section Delimiter
~Well ------------------------------------------------------
STRT.m     0.0 : START DEPTH
STOP.m 1282.68 : STOP DEPTH
STEP.m    26.0 : STEP
NULL. -9999.25 : NULL VALUE
COMP.          : COMPANY
WELL.          : WELL
FLD .          : FIELD
LOC .          : LOCATION
PROV.          : PROVINCE
CNTY.          : COUNTY
STAT.          : STATE
CTRY.          : COUNTRY
SRVC.          : SERVICE COMPANY
DATE.          : DATE
UWI .          : UNIQUE WELL ID
API .          : API NUMBER
~Curve Information -----------------------------------------
DEPT       .m    DEPTH : 
AC         .us/ft   AC : 
ACS        .us/ft  ACS : 
BS         .in      BS : 
CALI       .in    CALI : 
CALI_2     .in    CALI : 
DEN        .g/cm3  DEN : 
DT         .us/ft   DT : 
DTS        .us/ft  DTS : 
GR         .gAPI    GR : 
NEU        ._      NEU : 
PHIE       .m3/m3 PHIE : 
PHIT       .m3/m3 PHIT : 
RDEP       .ohm.m RDEP : 
RHOB       .g/cm3 RHOB : 
SWE        ._      SWE : 
VSH        ._      VSH : 
lithology  .           : 
core_phie_1.%          : 
core_phie_2.%          : 
core_phie_3.%          : 
core_phie_4.%          : 
core_phie_5.%          : 
~Params ----------------------------------------------------
~Other -----------------------------------------------------
~ASCII -----------------------------------------------------
# ...
   983.4372  116.46074        nan        8.5    8.32929    8.33063    2.28111  116.46143        nan   94.99079    0.35664     0.1273     0.2477    1.79025    2.28111     0.8879     0.5642      shale        nan        nan        nan        nan        nan
   984.0468  115.42194        nan        8.5    8.29232    8.29768    2.27007  115.42146        nan   89.90485    0.34567     0.1361     0.2527    1.58113    2.27007     0.9217     0.5462      shale        nan        nan        nan        nan        nan
   984.6564  115.09492        nan        8.5    8.31493      8.319    2.28802   115.0966        nan   94.19494    0.39101     0.1004     0.2424    1.61447    2.28803     0.9813     0.6653      shale        nan        nan        nan        nan        nan
    985.266  114.66503        nan        8.5    8.31472      8.325    2.31576  114.66391        nan  124.70815    0.34583     0.0982     0.2268    1.50723    2.31577        1.0     0.6028      shale        nan        nan        nan        nan        nan
   985.8756  114.92693        nan        8.5    8.37817    8.37675    2.42913  114.92812        nan    73.8898    0.22992     0.0689     0.1214    2.82665    2.42898        1.0     0.2456       silt        nan        nan        nan        nan        nan
   986.4852   99.86877        nan        8.5    8.28316    8.28225    2.51624   99.86411        nan    89.8358    0.37936        0.0     0.1686    2.52584    2.51634        1.0     0.7902      shale        nan        nan        nan        nan        nan
   987.0948  114.82095        nan        8.5    8.32717    8.32238    2.36084  114.82198        nan   96.94585    0.39017     0.0259     0.2069    2.13902    2.36087        1.0     0.8484      shale        nan        nan        nan        nan        nan
   987.7044    116.896        nan        8.5    8.33142    8.33275    2.34213  116.89661        nan   93.14237    0.37553     0.0497     0.2153    1.90866    2.34214        1.0     0.7761      shale        nan        nan        nan        nan        nan
    988.314  117.41183        nan        8.5    8.41223    8.41125    2.31744  117.41244        nan   96.87741    0.38065      0.065     0.2279    1.59193    2.31743        1.0     0.7634      shale        nan        nan        nan        nan        nan
   988.9236   117.1356        nan        8.5    8.43457    8.44687     2.2697  117.13483        nan   97.44845    0.38568     0.1021     0.2429     1.5575    2.26971     0.9946     0.6598      shale        nan        nan        nan        nan        nan
   989.5332  114.34481        nan        8.5    8.38629      8.382    2.29865  114.34509        nan  100.30074    0.39032     0.0692     0.2334    1.93228    2.29863     0.9703     0.7693      shale        nan        nan        nan        nan        nan
   990.1428  114.84486        nan        8.5    8.44921    8.46321    2.30532  114.84235        nan   97.46619    0.38988     0.0761     0.2343    1.82312    2.30531     0.9833     0.7412      shale        nan        nan        nan        nan        nan
   990.7524  113.72364        nan        8.5    8.40819    8.38688    2.36385  113.72594        nan   94.78939    0.36911     0.0287      0.198    2.15484    2.36384        1.0      0.793      shale        nan        nan        nan        nan        nan
    991.362  109.27187        nan        8.5    8.61621       8.68    2.28412  109.27378        nan  108.80377    0.33457      0.167     0.2577    0.79884    2.28423        1.0     0.4251       silt        nan        nan        nan        nan        nan
   991.9716  116.12734        nan        8.5    8.46865    8.48036    2.25968  116.12601        nan   75.38105    0.29146     0.1837     0.2495    0.91471    2.25965        1.0     0.3079       silt        nan        nan        nan        nan        nan
   992.5812  113.46967        nan        8.5    8.47697    8.47875    2.31414   113.4704        nan   76.38297    0.31008     0.1119     0.2075    1.27465    2.31404        1.0     0.4479       silt        nan        nan        nan        nan        nan
   993.1908  115.84937        nan        8.5    8.52305       8.49    2.68373  115.84982        nan   80.97198     0.1994        0.0      0.107    4.91195    2.68376        1.0     0.5015      shale        nan        nan        nan        nan        nan
   993.8004  108.44347        nan        8.5     8.5703    8.56547    2.39349  108.44724        nan   88.16601     0.3944     0.0403     0.1898    2.14133    2.39356        1.0     0.7005      shale        nan        nan        nan        nan        nan
     994.41  109.76615        nan        8.5    8.50278    8.50893    2.36675  109.76618        nan   95.06333    0.42162      0.025     0.1981    2.38422    2.36675        1.0     0.8108      shale        nan        nan        nan        nan        nan
   995.0196  112.36534        nan        8.5     8.4493    8.44602    2.36412  112.36535        nan   95.34272    0.37833     0.0263     0.2009    2.57166    2.36413        1.0     0.8182      shale        nan        nan        nan        nan        nan
   995.6292  114.85166        nan        8.5    8.37428    8.37625    2.36534   114.8512        nan   97.14619    0.42907     0.0183     0.1996    2.62443    2.36533        1.0     0.8496      shale        nan        nan        nan        nan        nan
   996.2388   113.7578        nan        8.5    8.46006    8.47117    2.37912  113.75782        nan   95.74355    0.45444     0.0161     0.1898    2.59568    2.37911        1.0     0.8143      shale        nan        nan        nan        nan        nan
   996.8484  117.86318        nan        8.5    8.45013       8.45    2.36929  117.86172        nan   96.65723    0.46326     0.0222     0.1971    2.68911    2.36929        1.0     0.8197      shale        nan        nan        nan        nan        nan
    997.458  111.13969        nan        8.5    8.38857    8.37643    2.38398  111.14008        nan   98.91711    0.40997     0.0036     0.1927     2.3501      2.384        1.0      0.886      shale        nan        nan        nan        nan        nan
   998.0676   110.9393        nan        8.5     8.3696    8.36625    2.23436  110.93718        nan   93.15493    0.33559     0.1922     0.2689    1.38902    2.23441     0.8967     0.3594       silt        nan        nan        nan        nan        nan
   998.6772  112.33219        nan        8.5    8.36848    8.37053    2.24034  112.33631        nan   87.60704    0.34617      0.157     0.2587    1.29232    2.24031     0.9798     0.4768       silt        nan        nan        nan        nan        nan
   999.2868  113.01546        nan        8.5    8.40021    8.40214    2.29844  113.01547        nan   97.03042    0.32487     0.1397     0.2309    1.68177    2.29843     0.9608     0.4273       silt        nan        nan        nan        nan        nan
   999.8964  114.44135        nan        8.5    8.42477    8.42562    2.29114  114.44038        nan  100.06657     0.3788     0.0744     0.2349    1.65777    2.29116        1.0      0.752      shale        nan        nan        nan        nan        nan
   1000.506  112.16437        nan        8.5    8.40822    8.40875    2.26066   112.1628        nan   95.66509    0.37743     0.1255     0.2496    1.56796    2.26063     0.9409     0.5816      shale        nan        nan        nan        nan        nan
  1001.1156  114.30172        nan        8.5    8.34342    8.34062    2.27464  114.30188        nan  103.03632    0.38638     0.0613     0.2311    1.56407    2.27461        1.0     0.7957      shale        nan        nan        nan        nan        nan
  1001.7252  112.67764        nan        8.5    8.41181    8.41705    2.22071   112.6783        nan  101.83904    0.34224     0.1716     0.2629    1.01672    2.22077        1.0     0.4279       silt        nan        nan        nan        nan        nan
  1002.3348  120.13785        nan        8.5    8.41615    8.40825    2.13985  120.13833        nan   86.15794    0.33005     0.2476     0.2849    0.87312    2.13985        1.0     0.1746       sand        nan        nan        nan        nan        nan
