~Version ---------------------------------------------------
VERS.   2.0 : CWLS log ASCII Standard -VERSION 2.0
WRAP.    NO : One line per depth step
DLM . SPACE : Column Data Section Delimiter
~Well ------------------------------------------------------
STRT.m     0.0 : START DEPTH
STOP.m 1282.68 : STOP DEPTH
STEP.m    26.0 : STEP
NULL. -9999.25 : NULL VALUE
COMP.          : COMPANY
WELL.          : WELL
FLD .          : FIELD
LOC .          : LOCATION
PROV.          : PROVINCE
CNTY.          : COUNTY
STAT.          : STATE
CTRY.          : COUNTRY
SRVC.          : SERVICE COMPANY
DATE.          : DATE
UWI .          : UNIQUE WELL ID
API .          : API NUMBER
~Curve Information -----------------------------------------
DEPT       .m    DEPTH : 
AC         .us/ft   AC : 
ACS        .us/ft  ACS : 
BS         .in      BS : 
CALI       .in    CALI : 
CALI_2     .in    CALI : 
DEN        .g/cm3  DEN : 
DT         .us/ft   DT : 
DTS        .us/ft  DTS : 
GR         .gAPI    GR : 
NEU        ._      NEU : 
PHIE       .m3/m3 PHIE : 
PHIT       .m3/m3 PHIT : 
RDEP       .ohm.m RDEP : 
RHOB       .g/cm3 RHOB : 
SWE        ._      SWE : 
VSH        ._      VSH : 
lithology  .           : 
core_phie_1.%          : 
core_phie_2.%          : 
core_phie_3.%          : 
core_phie_4.%          : 
core_phie_5.%          : 
~Params ----------------------------------------------------
~Other -----------------------------------------------------
~ASCII -----------------------------------------------------
# ...
   964.5396  114.91296        nan        8.5     8.4361     8.4425    2.16976   114.9119        nan     74.862    0.32024      0.233     0.2807    0.77902     2.1698        1.0     0.2232       silt        nan        nan        nan        nan        nan
   965.1492   114.3262        nan        8.5    8.46281    8.47125    2.10914  114.32477        nan    73.0966    0.31607     0.2813     0.2946    0.79468    2.10915        1.0     0.0622       sand        nan        nan        nan        nan        nan
   965.7588   96.67611        nan        8.5    8.32449     8.2845    2.14232   96.68548        nan    87.0402    0.19447        0.3        0.3    3.74673    2.14224        1.0        0.0        nan        nan        nan        nan        nan        nan
   966.3684   95.47986        nan        8.5    8.30314    8.29688    2.34704   95.46236        nan   66.57281    0.26559     0.1812     0.2243     0.9727    2.34722        1.0     0.2017       silt        nan        nan        nan        nan        nan
    966.978  115.71461        nan        8.5    8.36601     8.3875    2.15474  115.71449        nan   68.27099    0.36117     0.2091     0.2738    0.80162    2.15475        1.0     0.3028       silt        nan        nan        nan        nan        nan
   967.5876  114.84214        nan        8.5    8.26495    8.25648    2.11561  114.84178        nan   69.24768    0.33573     0.2525     0.2863     0.7216    2.11562        1.0     0.1582       sand        nan        nan        nan        nan        nan
   968.1972  117.19376        nan        8.5    8.26896       8.25    2.11553  117.19353        nan   77.08454    0.36867      0.225     0.2784    0.73698    2.11552        1.0     0.2498       silt        nan        nan        nan        nan        nan
   968.8068  116.43942        nan        8.5    8.29389    8.29125    2.12454  116.43776        nan   88.08255    0.31314     0.2919     0.2976    0.86452    2.12453        1.0     0.0272       sand        nan        nan        nan        nan        nan
   969.4164  118.22618        nan        8.5    8.25102       8.25    2.22227  118.22619        nan   84.93513    0.31173      0.221     0.2752    1.22211    2.22226     0.9359      0.254       silt        nan        nan        nan        nan        nan
    970.026  117.61526        nan        8.5    8.30166     8.3145     2.2316  117.61559        nan   80.84803    0.34496     0.1693     0.2623    0.93025    2.23161        1.0     0.4358       silt        nan        nan        nan        nan        nan
   970.6356  117.92256        nan        8.5    8.34506       8.34    2.14578  117.92348        nan   69.51198    0.32108     0.2499     0.2855    0.72577     2.1458        1.0     0.1672       sand        nan        nan        nan        nan        nan
   971.2452  114.89813        nan        8.5    8.29841       8.31    2.19438  114.89863        nan   73.58186    0.29791      0.244     0.2838    0.73016    2.19435        1.0     0.1867       sand        nan        nan        nan        nan        nan
   971.8548  118.30466        nan        8.5    8.30446       8.31    2.13788  118.30334        nan   85.82089    0.37832     0.1962       0.27    1.17984    2.13787     0.9754     0.3461       silt        nan        nan        nan        nan        nan
   972.4644  116.10943        nan        8.5    8.29351    8.29125     2.2695  116.11131        nan  101.96113    0.35133     0.1154     0.2467     1.5064    2.26949     0.9857     0.6155      shale        nan        nan        nan        nan        nan
    973.074  117.64189        nan        8.5    8.33243     8.3649    2.28949  117.64086        nan   98.33357    0.34159     0.1247     0.2418    1.51777    2.28949     0.9886     0.5484      shale        nan        nan        nan        nan        nan
   973.6836  111.70237        nan        8.5    8.42434      8.427    2.32435  111.70287        nan  119.59016    0.33462     0.0903     0.2207    1.62056    2.32435        1.0     0.6111      shale        nan        nan        nan        nan        nan
   974.2932  115.78842        nan        8.5    8.43282       8.43    2.17738   115.7874        nan   84.64627    0.33494     0.2457     0.2843    1.00196    2.17743     0.9946     0.1808       sand        nan        nan        nan        nan        nan
   974.9028  117.15636        nan        8.5    8.42365    8.41833    2.15517   117.1562        nan   82.07769    0.30545     0.2675     0.2906    0.99204    2.15516     0.9734     0.1083       sand        nan        nan        nan        nan        nan
   975.5124  114.96895        nan        8.5    8.30819      8.304    2.17774  114.96998        nan   83.36694    0.35226     0.1927      0.269    1.07347    2.17772        1.0     0.3576       silt        nan        nan        nan        nan        nan
    976.122   118.1547        nan        8.5    8.33335     8.3225    2.18098   118.1552        nan   82.38929    0.35078     0.1853     0.2669    0.97895    2.18097        1.0     0.3824       silt        nan        nan        nan        nan        nan
   976.7316   115.8028        nan        8.5    8.30349    8.30571    2.23622  115.80447        nan   95.59985    0.34426     0.1552     0.2582    1.29253    2.23619     0.9881     0.4826       silt        nan        nan        nan        nan        nan
   977.3412  112.41837        nan        8.5    8.32425    8.32063    2.25829  112.41846        nan   93.59483    0.36138     0.1313     0.2513    1.53313    2.25829     0.9458     0.5622      shale        nan        nan        nan        nan        nan
   977.9508   112.5798        nan        8.5     8.3214    8.31563     2.2542  112.57857        nan  102.70274     0.3409     0.1671     0.2591    1.66669    2.25419     0.8611     0.4311       silt        nan        nan        nan        nan        nan
   978.5604  109.17381        nan        8.5    8.37391     8.3775    2.28246  109.18057        nan   69.00602    0.18967      0.222      0.222    2.04969    2.28239     0.8747        0.0        nan        nan        nan        nan        nan        nan
     979.17     81.992        nan        8.5    8.34074    8.33679    2.61903   81.98938        nan   66.96712    0.06614        0.0     0.0532    8.99806    2.61898        1.0     0.2495       silt        nan        nan        nan        nan        nan
   979.7796   107.2302        nan        8.5     8.3054    8.30938    2.31635  107.21484        nan   74.54403    0.19246     0.2308     0.2379    2.29453    2.31652     0.7756     0.0333       sand        nan        nan        nan        nan        nan
   980.3892  114.33917        nan        8.5    8.36752    8.34773    2.18229  114.33945        nan   80.48569     0.2973     0.2562     0.2874    0.98767    2.18227      0.987     0.1459       sand        nan        nan        nan        nan        nan
   980.9988  117.03079        nan        8.5    8.45215      8.472    2.25902  117.02903        nan    86.3773    0.37324     0.1099     0.2451    1.40644      2.259        1.0     0.6335      shale        nan        nan        nan        nan        nan
   981.6084  114.67461        nan        8.5    8.37322    8.33625    2.25324  114.67471        nan   90.36478    0.35878      0.138     0.2533    1.60592    2.25324     0.9119     0.5399      shale        nan        nan        nan        nan        nan
    982.218  111.86935        nan        8.5      8.311    8.29625    2.24212   111.8725        nan   89.20868    0.36498     0.1349     0.2524    1.69467     2.2421     0.8926     0.5502      shale        nan        nan        nan        nan        nan
     982.75  115.44462        nan        8.5    8.27208    8.26909    2.27759  115.44382        nan   89.59436    0.41954    0.09546    0.24097    2.14288    2.27759    0.86213    0.68179      shale        nan        nan        nan        nan        nan
   982.8276  115.75268        nan        8.5    8.26724    8.26425    2.27575  115.75188        nan   88.79168    0.42203     0.1003     0.2424    2.15685    2.27576     0.8495     0.6657      shale        nan        nan        nan        nan        nan
