~Version ---------------------------------------------------
VERS.   2.0 : CWLS log ASCII Standard -VERSION 2.0
WRAP.    NO : One line per depth step
DLM . SPACE : Column Data Section Delimiter
~Well ------------------------------------------------------
STRT.m     0.0 : START DEPTH
STOP.m 1282.68 : STOP DEPTH
STEP.m    26.0 : STEP
NULL. -9999.25 : NULL VALUE
COMP.          : COMPANY
WELL.          : WELL
FLD .          : FIELD
LOC .          : LOCATION
PROV.          : PROVINCE
CNTY.          : COUNTY
STAT.          : STATE
CTRY.          : COUNTRY
SRVC.          : SERVICE COMPANY
DATE.          : DATE
UWI .          : UNIQUE WELL ID
API .          : API NUMBER
~Curve Information -----------------------------------------
DEPT       .m    DEPTH : 
AC         .us/ft   AC : 
ACS        .us/ft  ACS : 
BS         .in      BS : 
CALI       .in    CALI : 
CALI_2     .in    CALI : 
DEN        .g/cm3  DEN : 
DT         .us/ft   DT : 
DTS        .us/ft  DTS : 
GR         .gAPI    GR : 
NEU        ._      NEU : 
PHIE       .m3/m3 PHIE : 
PHIT       .m3/m3 PHIT : 
RDEP       .ohm.m RDEP : 
RHOB       .g/cm3 RHOB : 
SWE        ._      SWE : 
VSH        ._      VSH : 
lithology  .           : 
core_phie_1.%          : 
core_phie_2.%          : 
core_phie_3.%          : 
core_phie_4.%          : 
core_phie_5.%          : 
~Params ----------------------------------------------------
~Other -----------------------------------------------------
~ASCII -----------------------------------------------------
# ...
   1155.954  100.52821        nan        8.5    8.44809    8.43897    2.45937  100.52959        nan   88.55154    0.24647     0.0533     0.1186    3.31468    2.45935        1.0     0.5355      shale        nan        nan        nan        nan        nan
  1156.5636   92.74564        nan        8.5    8.53028    8.55508    2.48394   92.74564        nan  104.33279    0.30697     0.0371     0.1249    5.04724    2.48394     0.7729     0.7199      shale        nan        nan        nan        nan        nan
  1157.1732   95.78613        nan        8.5    8.46692    8.47469    2.45808   95.78613        nan   97.83491    0.29483     0.0565     0.1311    5.40209    2.45808       0.72     0.6118      shale        nan        nan        nan        nan        nan
  1157.7828   95.33515        nan        8.5    8.48241    8.47855    2.45838   95.33451        nan   94.18842    0.37999      0.051     0.1477    4.77438    2.45839     0.6923      0.793      shale        nan        nan        nan        nan        nan
  1158.3924  109.88339        nan        8.5     8.5105    8.49273    2.40828  109.88339        nan   94.78494    0.41935     0.0595     0.1573     3.5494    2.40828      0.761     0.8016      shale        nan        nan        nan        nan        nan
   1159.002  106.95711        nan        8.5    8.49601    8.51156    2.41568  106.95711        nan    99.1989    0.43682      0.033     0.1415    4.13867    2.41568     0.7825     0.8901      shale        nan        nan        nan        nan        nan
  1159.6116  101.41992        nan        8.5      8.442    8.44042    2.40532  101.42045        nan   101.6805    0.43447     0.0313     0.1405    4.12224    2.40533     0.7899     0.8958      shale        nan        nan        nan        nan        nan
  1160.2212  113.01633        nan        8.5    8.54264    8.54266    2.36324  113.01633        nan   99.33385     0.4469     0.0378     0.1444    4.12334    2.36324      0.768      0.874      shale        nan        nan        nan        nan        nan
  1160.8308  120.10347        nan        8.5    8.52648    8.54375    2.43799  120.10347        nan  109.46632    0.33681     0.0659     0.1406    4.07768    2.43799     0.7801     0.6129      shale        nan        nan        nan        nan        nan
  1161.4404   101.4045        nan        8.5    8.49688    8.49809    2.46186  101.40575        nan  105.63882    0.37467     0.0425     0.1417    4.30259    2.46186      0.757      0.813      shale        nan        nan        nan        nan        nan
    1162.05   97.43043        nan        8.5    8.51271    8.51463     2.5076   97.43043        nan  104.55541    0.35199     0.0072     0.1083    4.37894     2.5076      0.943     0.8295      shale        nan        nan        nan        nan        nan
  1162.6596   97.23247        nan        8.5    8.51838     8.5195    2.56612   97.23247        nan  105.72215    0.43082        0.0      0.122    4.22569    2.56612        1.0     0.9655      shale        nan        nan        nan        nan        nan
  1163.2692   95.37261        nan        8.5    8.56792    8.58792    2.55472   95.37261        nan   94.03308     0.3518        0.0     0.0965      4.157    2.55472        1.0     0.7913      shale        nan        nan        nan        nan        nan
  1163.8788  104.81736        nan        8.5    8.48997    8.49398    2.53308  104.81731        nan    82.1394    0.44542     0.0246     0.0832    4.55601    2.53308        1.0     0.4806       silt        nan        nan        nan        nan        nan
  1164.4884  102.47318        nan        8.5    8.51249    8.50399     2.5568  102.47318        nan   75.36007    0.44446      0.022     0.0708    4.62792     2.5568        1.0     0.3999       silt        nan        nan        nan        nan        nan
   1165.098    91.7842        nan        8.5     8.8862    8.88625    2.57693   91.78505        nan   80.19719    0.46223        0.0     0.0649    4.48922    2.57693        1.0     0.5324      shale        nan        nan        nan        nan        nan
  1165.7076   90.30735        nan        8.5    8.38008    8.41125    2.58908   90.30633        nan   69.43186    0.40144     0.0171      0.049    4.54118    2.58908        1.0     0.2618       silt        nan        nan        nan        nan        nan
  1166.3172   91.69511        nan        8.5    8.58847    8.56725    2.55635   91.69511        nan   79.66769    0.45163     0.0123     0.0769    4.46922    2.55635        1.0     0.5299      shale        nan        nan        nan        nan        nan
  1166.9268   91.53294        nan        8.5     8.6125    8.61818    2.54355   91.53294        nan   71.07703    0.40542     0.0398     0.0822    4.65528    2.54355        1.0      0.347       silt        nan        nan        nan        nan        nan
  1167.5364   92.86769        nan        8.5    8.57465    8.57594    2.55852   92.86747        nan   64.93094    0.43399     0.0398     0.0659    4.44692    2.55852        1.0     0.2142       silt        nan        nan        nan        nan        nan
   1168.146   91.84448        nan        8.5    8.56525     8.6145    2.56037   91.84448        nan   74.41976    0.43704     0.0128      0.062     4.3319    2.56037        1.0     0.4038       silt        nan        nan        nan        nan        nan
  1168.7556   90.07283        nan        8.5    8.71473    8.66333    2.60899   90.07284        nan   66.17846     0.4959     0.0074     0.0347    4.26214    2.60899        1.0     0.2242       silt        nan        nan        nan        nan        nan
  1169.3652   94.69298        nan        8.5    8.63076    8.56962    2.55977   94.69317        nan   72.06614     0.4881     0.0282     0.0698      4.401    2.55978        1.0     0.3413       silt        nan        nan        nan        nan        nan
  1169.9748   92.28616        nan        8.5    8.65935       8.68    2.55457   92.28616        nan   67.48767    0.49132     0.0326     0.0622     4.5263    2.55458        1.0     0.2427       silt        nan        nan        nan        nan        nan
  1170.5844   92.63822        nan        8.5    8.61528    8.59214    2.51234   92.63822        nan   73.37424    0.54461     0.0566     0.1002    4.66866    2.51234        1.0     0.3574       silt        nan        nan        nan        nan        nan
   1171.194   91.99605        nan        8.5    8.47982    8.45906     2.5405   91.99615        nan   77.06073    0.47884      0.031     0.0849    4.59303     2.5405        1.0      0.442       silt        nan        nan        nan        nan        nan
  1171.8036   89.25075        nan        8.5    8.54386      8.538    2.52464   89.25075        nan   78.20818    0.49551     0.0325      0.088    4.62398    2.52464        1.0     0.4553       silt        nan        nan        nan        nan        nan
  1172.4132   91.78697        nan        8.5    8.51411    8.53312    2.55866   91.78697        nan   85.57602    0.50523        0.0     0.0755    4.10941    2.55866        1.0     0.6189      shale        nan        nan        nan        nan        nan
  1173.0228   98.34507        nan        8.5    8.64851    8.65375    2.52457   98.34554        nan   87.61552     0.5051     0.0159     0.0954    4.25876    2.52456        1.0     0.6519      shale        nan        nan        nan        nan        nan
  1173.6324   91.90954        nan        8.5    8.69492     8.6865    2.52967   91.90954        nan   89.13247    0.46844     0.0138     0.0958    4.66496    2.52967     0.9979     0.6718      shale        nan        nan        nan        nan        nan
   1174.242   94.32167        nan        8.5    8.65253       8.68    2.53886   94.32167        nan   87.83517    0.46616     0.0044      0.084    4.45813    2.53886        1.0     0.6525      shale        nan        nan        nan        nan        nan
  1174.8516   93.07308        nan        8.5    8.76544    8.77458     2.5622   93.07307        nan    85.8085     0.5322        0.0     0.0755    4.30349     2.5622        1.0     0.6194      shale        nan        nan        nan        nan        nan
