~Version ---------------------------------------------------
VERS.   2.0 : CWLS log ASCII Standard -VERSION 2.0
WRAP.    NO : One line per depth step
DLM . SPACE : Column Data Section Delimiter
~Well ------------------------------------------------------
STRT.m     0.0 : START DEPTH
STOP.m 1282.68 : STOP DEPTH
STEP.m    26.0 : STEP
NULL. -9999.25 : NULL VALUE
COMP.          : COMPANY
WELL.          : WELL
FLD .          : FIELD
LOC .          : LOCATION
PROV.          : PROVINCE
CNTY.          : COUNTY
STAT.          : STATE
CTRY.          : COUNTRY
SRVC.          : SERVICE COMPANY
DATE.          : DATE
UWI .          : UNIQUE WELL ID
API .          : API NUMBER
~Curve Information -----------------------------------------
DEPT       .m    DEPTH : 
AC         .us/ft   AC : 
ACS        .us/ft  ACS : 
BS         .in      BS : 
CALI       .in    CALI : 
CALI_2     .in    CALI : 
DEN        .g/cm3  DEN : 
DT         .us/ft   DT : 
DTS        .us/ft  DTS : 
GR         .gAPI    GR : 
NEU        ._      NEU : 
PHIE       .m3/m3 PHIE : 
PHIT       .m3/m3 PHIT : 
RDEP       .ohm.m RDEP : 
RHOB       .g/cm3 RHOB : 
SWE        ._      SWE : 
VSH        ._      VSH : 
lithology  .           : 
core_phie_1.%          : 
core_phie_2.%          : 
core_phie_3.%          : 
core_phie_4.%          : 
core_phie_5.%          : 
~Params ----------------------------------------------------
~Other -----------------------------------------------------
~ASCII -----------------------------------------------------
# ...
  1041.3492  118.95259        nan        8.5    8.38653    8.38575    2.33097  118.95366        nan  101.51177    0.31201     0.1228     0.2082    1.98069    2.33095      0.917     0.4665       silt        nan        nan        nan        nan        nan
  1041.9588  112.33887        nan        8.5    8.50055    8.50181    2.36827  112.33923        nan   92.61678    0.36074     0.0725      0.193    2.14315    2.36826     0.9703     0.6589      shale        nan        nan        nan        nan        nan
  1042.5684  114.15411        nan        8.5    8.51403    8.50821    2.35485  114.15528        nan   97.25272    0.41317     0.0414     0.1991     2.3028    2.35485     0.9642     0.8619      shale        nan        nan        nan        nan        nan
   1043.178  111.58676        nan        8.5    8.48152    8.48607    2.39855  111.58602        nan   97.11461    0.41329     0.0216     0.1791    2.45191    2.39855        1.0     0.8612      shale        nan        nan        nan        nan        nan
  1043.7876  108.81521        nan        8.5    8.33701    8.32018    2.32516   108.8144        nan   86.45195    0.42008     0.1198     0.2297    1.81305    2.32519     0.8774     0.6007      shale        nan        nan        nan        nan        nan
  1044.3972  112.61584        nan        8.5    8.42921    8.43429    2.21699  112.61424        nan   77.52087    0.30774     0.2531     0.2787     1.4703      2.217     0.8026     0.1398       sand        nan        nan        nan        nan        nan
  1045.0068  108.27978        nan        8.5    8.44305       8.45    2.33099  108.27332        nan   76.72004    0.22178     0.1766     0.2138    1.37332    2.33102        1.0     0.2033       silt        nan        nan        nan        nan        nan
  1045.6164  117.72501        nan        8.5    8.43669    8.44688    2.16408   117.7261        nan   65.66174    0.28205        0.3        0.3    1.01459    2.16409     0.8956        0.0        nan        nan        nan        nan        nan        nan
   1046.226  114.87786        nan        8.5    8.69433    8.73661    2.16169  114.87872        nan   68.14833    0.31291     0.2756     0.2905    0.73388     2.1617        1.0     0.0812       sand        nan        nan        nan        nan        nan
  1046.8356  113.77821        nan        8.5    8.66156    8.67937    2.12007  113.77796        nan   68.05346    0.31609     0.2842     0.2938    0.65221    2.12008        1.0     0.0528       sand        nan        nan        nan        nan        nan
  1047.4452  116.30445        nan        8.5    9.08465       9.15    2.12136  116.30389        nan   70.83693    0.47821     0.2123     0.2658    0.77689    2.12135        1.0     0.2925       silt        nan        nan        nan        nan        nan
  1048.0548  115.61026        nan        8.5      8.924     8.8825    2.13513  115.60951        nan   77.92429        nan      0.273     0.2895    0.74036    2.13513        1.0       0.09       sand        nan        nan        nan        nan        nan
  1048.6644  113.69938        nan        8.5    8.94871    8.94812    2.22517  113.70111        nan   72.29076    0.30895     0.2147     0.2648    1.39987    2.22511     0.8598     0.2739       silt        nan        nan        nan        nan        nan
   1049.274  113.48551        nan        8.5    9.11104       9.47     2.2066  113.48598        nan   74.53585    0.32447     0.2267     0.2714    0.96259    2.20661        1.0     0.2443       silt        nan        nan        nan        nan        nan
  1049.8836  109.91042        nan        8.5     8.4399     8.4375    2.27806  109.91051        nan   66.77787    0.32528     0.2064     0.2447    0.91289    2.27808        1.0     0.2097       silt        nan        nan        nan        nan        nan
  1050.4932  110.32429        nan        8.5    8.40632      8.436    2.20464  110.32516        nan   65.78127     0.0923     0.2689     0.2689    3.78245    2.20458        1.0        0.0        nan        nan        nan        nan        nan        nan
  1051.1028  113.50971        nan        8.5    8.45264    8.46425    2.15613  113.51244        nan   69.51873    0.27896     0.2716     0.2889    0.97123    2.15613     0.9511     0.0946       sand        nan        nan        nan        nan        nan
  1051.7124   109.8025        nan        8.5    8.43081    8.41969    2.22836  109.80363        nan   88.78825     0.2994     0.2214     0.2645    1.54609    2.22832     0.8195     0.2358       silt        nan        nan        nan        nan        nan
   1052.322  107.77579        nan        8.5    8.37859      8.367    2.32648  107.77622        nan   95.60977     0.3082     0.1362     0.2165    1.89328    2.32648     0.8993     0.4389       silt        nan        nan        nan        nan        nan
  1052.9316  108.01862        nan        8.5    8.37541    8.35688    2.20731  108.01651        nan   63.15261    0.27032     0.2774     0.2888     0.9873    2.20733     0.9431     0.0623       sand        nan        nan        nan        nan        nan
  1053.5412  113.01801        nan        8.5    8.42207    8.42625    2.15496  113.01848        nan   59.18536    0.26535        0.3        0.3    0.66324    2.15496        1.0        0.0        nan        nan        nan        nan        nan        nan
  1054.1508  113.70367        nan        8.5    8.38977    8.39312    2.16283  113.70394        nan   59.54531    0.27624        0.3        0.3    0.68934    2.16282        1.0        0.0        nan        nan        nan        nan        nan        nan
  1054.7604  112.27158        nan        8.5    8.39591     8.4075    2.13801  112.27262        nan   63.69862     0.2887        0.3        0.3    0.65171      2.138        1.0        0.0        nan        nan        nan        nan        nan        nan
    1055.37  115.64659        nan        8.5    8.44452    8.44917    2.12498  115.64509        nan   68.56509    0.28573        0.3        0.3    0.64253    2.12497        1.0        0.0        nan        nan        nan        nan        nan        nan
  1055.9796  117.18425        nan        8.5    8.47278    8.48292    2.15355   117.1839        nan   70.36046    0.22935        0.3        0.3    1.49169    2.15354     0.7357        0.0        nan        nan        nan        nan        nan        nan
  1056.5892  112.81312        nan        8.5    8.36749      8.355    2.23621  112.81596        nan   90.80187    0.30121     0.2013     0.2604    1.68451    2.23616     0.7936     0.3233       silt        nan        nan        nan        nan        nan
  1057.1988  115.36517        nan        8.5    8.30241    8.29275    2.26848   115.3637        nan   94.69364    0.36715     0.1443     0.2393    1.49017    2.26849     0.9195     0.5189      shale        nan        nan        nan        nan        nan
  1057.8084  118.14131        nan        8.5    8.32513    8.31054    2.31331  118.14106        nan    89.4277    0.36259     0.1195     0.2287    1.53679    2.31331     0.9538     0.5968      shale        nan        nan        nan        nan        nan
   1058.418  121.79836        nan        8.5    8.33387    8.33625    2.41004  121.79858        nan   93.60656    0.44976     0.0275     0.1693    2.39322    2.41003        1.0     0.7752      shale        nan        nan        nan        nan        nan
  1059.0276   121.0362        nan        8.5    8.35109    8.34188    2.36837  121.03627        nan   88.71639    0.44501     0.0727     0.1989    2.37699    2.36838     0.8975       0.69      shale        nan        nan        nan        nan        nan
  1059.6372  125.34354        nan        8.5    8.34101    8.34375     2.3486  125.34226        nan   90.43443    0.40004     0.0737     0.2061    2.11978    2.34858     0.9238     0.7238      shale        nan        nan        nan        nan        nan
  1060.2468  121.97575        nan        8.5    8.39642     8.4075    2.32799  121.97624        nan  102.02626    0.35205     0.1229     0.2142    1.93475    2.32798     0.8993     0.4989       silt        nan        nan        nan        nan        nan
