~Version ---------------------------------------------------
VERS.   2.0 : CWLS log ASCII Standard -VERSION 2.0
WRAP.    NO : One line per depth step
DLM . SPACE : Column Data Section Delimiter
~Well ------------------------------------------------------
STRT.m     0.0 : START DEPTH
STOP.m 1282.68 : STOP DEPTH
STEP.m    26.0 : STEP
NULL. -9999.25 : NULL VALUE
COMP.          : COMPANY
WELL.          : WELL
FLD .          : FIELD
LOC .          : LOCATION
PROV.          : PROVINCE
CNTY.          : COUNTY
STAT.          : STATE
CTRY.          : COUNTRY
SRVC.          : SERVICE COMPANY
DATE.          : DATE
UWI .          : UNIQUE WELL ID
API .          : API NUMBER
~Curve Information -----------------------------------------
DEPT       .m    DEPTH : 
AC         .us/ft   AC : 
ACS        .us/ft  ACS : 
BS         .in      BS : 
CALI       .in    CALI : 
CALI_2     .in    CALI : 
DEN        .g/cm3  DEN : 
DT         .us/ft   DT : 
DTS        .us/ft  DTS : 
GR         .gAPI    GR : 
NEU        ._      NEU : 
PHIE       .m3/m3 PHIE : 
PHIT       .m3/m3 PHIT : 
RDEP       .ohm.m RDEP : 
RHOB       .g/cm3 RHOB : 
SWE        ._      SWE : 
VSH        ._      VSH : 
lithology  .           : 
core_phie_1.%          : 
core_phie_2.%          : 
core_phie_3.%          : 
core_phie_4.%          : 
core_phie_5.%          : 
~Params ----------------------------------------------------
~Other -----------------------------------------------------
~ASCII -----------------------------------------------------
# ...
   1079.754  114.31332        nan        8.5    8.45638        0.0    2.13313  114.31351        nan   62.95975    0.30313     0.2803     0.2923    0.69915    2.13313        1.0     0.0656       sand        nan        nan        nan        nan        nan
  1080.3636  116.16631        nan        8.5    8.43492        0.0    2.11327  116.16624        nan   74.28191    0.30293     0.2984     0.2994    0.97756    2.11326     0.9027     0.0054       sand        nan        nan        nan        nan        nan
  1080.9732  108.85921        nan        8.5     8.3558        0.0    2.16813  108.86235        nan   77.06565     0.3007      0.255     0.2824    1.36895     2.1681     0.8102     0.1501       sand        nan        nan        nan        nan        nan
  1081.5828  105.34924        nan        8.5    8.42811        0.0    2.26857  105.34855        nan    89.5052    0.27569     0.1994     0.2466      1.647    2.26857     0.8428     0.2583       silt        nan        nan        nan        nan        nan
  1082.1924  106.79986        nan        8.5     8.4039        0.0    2.21269   106.8007        nan   73.73054    0.26765     0.2606     0.2783    1.17371    2.21269     0.8885     0.0967       sand        nan        nan        nan        nan        nan
   1082.802  106.37887        nan        8.5    8.43131        0.0    2.23005  106.37942        nan   66.70796    0.27261     0.2433     0.2702    1.41943    2.23005     0.8313     0.1472       sand        nan        nan        nan        nan        nan
  1083.4116  100.80524        nan        8.5    8.47799        0.0    2.28464  100.80563        nan   83.02178    0.29911     0.1741     0.2317    1.92257    2.28463     0.8282     0.3152       silt        nan        nan        nan        nan        nan
  1084.0212   72.57627        nan        8.5    8.45109        0.0    2.53683   72.57995        nan    65.9787    0.17399     0.0348     0.0673    5.89847     2.5368        1.0     0.1776       sand        nan        nan        nan        nan        nan
  1084.6308  109.61859        nan        8.5    8.40059        0.0    2.17043   109.6166        nan   63.05617    0.22019        0.3        0.3    1.15113    2.17046     0.8284        0.0        nan        nan        nan        nan        nan        nan
  1085.2404  116.45203        nan        8.5    8.44899        0.0    2.17103   116.4519        nan   64.24226    0.30052     0.2736     0.2897    0.83143    2.17103        1.0      0.088       sand        nan        nan        nan        nan        nan
    1085.85  115.38181        nan        8.5    8.48727    8.49696    2.16094   115.3828        nan   63.10026    0.29988     0.2889     0.2957     0.8979    2.16094     0.9535     0.0369       sand        nan        nan        nan        nan        nan
  1086.4596  108.84136        nan        8.5    8.49739    8.48341    2.27041  108.84139        nan   84.25079    0.31663     0.1552     0.2403    1.35979    2.27037     0.9494      0.465       silt        nan        nan        nan        nan        nan
  1087.0692  106.92613        nan        8.5    8.50258       8.52    2.48821  106.92574        nan   96.12402    0.42069        0.0     0.1496    2.74358    2.48821        1.0     0.8175      shale        nan        nan        nan        nan        nan
  1087.6788  120.22121        nan        8.5    8.45171    8.44781     2.4267  120.22108        nan   97.62893    0.39727     0.0103     0.1683    2.54177    2.42672        1.0     0.8638      shale        nan        nan        nan        nan        nan
  1088.2884  119.12944        nan        8.5    8.40353    8.41083    2.39778  119.13059        nan   98.44115    0.48917     0.0261     0.1837    2.27603    2.39779        1.0     0.8614      shale        nan        nan        nan        nan        nan
   1088.898  114.84196        nan        8.5    8.35826    8.35232    2.40256  114.84238        nan   94.89852     0.4328     0.0259     0.1759    2.45412    2.40256        1.0     0.8201      shale        nan        nan        nan        nan        nan
  1089.5076  114.64702        nan        8.5    8.40943    8.40107    2.39567  114.64733        nan  103.11636    0.46267        0.0     0.1829    2.44385    2.39567        1.0     0.9733      shale        nan        nan        nan        nan        nan
  1090.1172  113.85701        nan        8.5     8.4495     8.4575    2.40782  113.85664        nan  102.44798    0.49409        0.0     0.1829    2.50994    2.40782        1.0     0.9618      shale        nan        nan        nan        nan        nan
  1090.7268  115.40165        nan        8.5    8.46043      8.445    2.38826  115.40169        nan  104.60493    0.41939     0.0155      0.189    2.72469    2.38826     0.9774     0.9482      shale        nan        nan        nan        nan        nan
  1091.3364  111.54436        nan        8.5    8.54752      8.565    2.41848  111.54446        nan  107.04314    0.45249        0.0     0.1829    2.79445    2.41848        1.0        1.0      shale        nan        nan        nan        nan        nan
   1091.946  106.84612        nan        8.5    8.46527      8.484    2.39196  106.84555        nan  103.89004    0.42233     0.0176     0.1869    2.77837    2.39196     0.9678     0.9254      shale        nan        nan        nan        nan        nan
  1092.5556  107.22975        nan        8.5    8.43391     8.4375    2.41351   107.2307        nan  103.68933    0.37806     0.0219     0.1718    2.88212    2.41351     0.9887     0.8196      shale        nan        nan        nan        nan        nan
  1093.1652  103.84835        nan        8.5    8.57753    8.58729    2.40412  103.84712        nan   98.78987    0.35556     0.0243     0.1727    2.71745    2.40412        1.0     0.8111      shale        nan        nan        nan        nan        nan
  1093.7748  102.64022        nan        8.5    8.57347    8.53937    2.32478  102.64017        nan   87.04504    0.36045     0.1136     0.2272    1.55983     2.3248     0.9497     0.6209      shale        nan        nan        nan        nan        nan
  1094.3844  111.31231        nan        8.5    8.46444    8.44425    2.37701  111.31258        nan   92.25963    0.37601     0.0467     0.1875    3.13432      2.377     0.8463     0.7698      shale        nan        nan        nan        nan        nan
   1094.994  121.21497        nan        8.5    8.36716    8.35312    2.38873  121.21444        nan  104.73216    0.51065        0.0     0.1829    2.80967    2.38873        1.0     0.9955      shale        nan        nan        nan        nan        nan
  1095.6036   120.6166        nan        8.5    8.39895    8.39625    2.40289  120.61629        nan  107.97343    0.52076        0.0     0.1829    2.74445     2.4029        1.0        1.0      shale        nan        nan        nan        nan        nan
    1095.74  119.13002        nan        8.5    8.40752    8.41387    2.40093   119.1319        nan  111.40263    0.50849        0.0     0.1829    2.73474    2.40093        1.0        1.0      shale        nan        nan        nan        nan        nan
  1096.2132  114.82406        nan        8.5    8.42919       8.42    2.36424  114.82378        nan   99.67514    0.39981     0.0721     0.2111    2.39977    2.36429     0.8512     0.7598      shale        nan        nan        nan        nan        nan
  1096.8228  115.42937        nan        8.5    8.43682    8.44286    2.16428  115.42921        nan   81.84402    0.36738     0.1969     0.2598    0.95331    2.16428        1.0     0.3437       silt        nan        nan        nan        nan        nan
  1097.4324  110.46215        nan        8.5     8.4357    8.43656    2.19958  110.46165        nan   86.53407    0.31977     0.2351     0.2747    1.11783    2.19956     0.9152     0.2163       silt        nan        nan        nan        nan        nan
   1098.042  109.64556        nan        8.5    8.45391    8.45182     2.2125  109.64573        nan   88.46747    0.32392     0.2205      0.269    1.06475     2.2125     0.9562     0.2651       silt        nan        nan        nan        nan        nan
