~Version ---------------------------------------------------
VERS.   2.0 : CWLS log ASCII Standard -VERSION 2.0
WRAP.    NO : One line per depth step
DLM . SPACE : Column Data Section Delimiter
~Well ------------------------------------------------------
STRT.m     0.0 : START DEPTH
STOP.m 1282.68 : STOP DEPTH
STEP.m    26.0 : STEP
NULL. -9999.25 : NULL VALUE
COMP.          : COMPANY
WELL.          : WELL
FLD .          : FIELD
LOC .          : LOCATION
PROV.          : PROVINCE
CNTY.          : COUNTY
STAT.          : STATE
CTRY.          : COUNTRY
SRVC.          : SERVICE COMPANY
DATE.          : DATE
UWI .          : UNIQUE WELL ID
API .          : API NUMBER
~Curve Information -----------------------------------------
DEPT       .m    DEPTH : 
AC         .us/ft   AC : 
ACS        .us/ft  ACS : 
BS         .in      BS : 
CALI       .in    CALI : 
CALI_2     .in    CALI : 
DEN        .g/cm3  DEN : 
DT         .us/ft   DT : 
DTS        .us/ft  DTS : 
GR         .gAPI    GR : 
NEU        ._      NEU : 
PHIE       .m3/m3 PHIE : 
PHIT       .m3/m3 PHIT : 
RDEP       .ohm.m RDEP : 
RHOB       .g/cm3 RHOB : 
SWE        ._      SWE : 
VSH        ._      VSH : 
lithology  .           : 
core_phie_1.%          : 
core_phie_2.%          : 
core_phie_3.%          : 
core_phie_4.%          : 
core_phie_5.%          : 
~Params ----------------------------------------------------
~Other -----------------------------------------------------
~ASCII -----------------------------------------------------
# ...
  1194.3588  107.86835        nan        8.5    8.51847    8.49417    2.28731  107.86818        nan   55.43196    0.28209     0.2226     0.2226    0.74055    2.28732        1.0     0.0004       sand        nan        nan        nan        nan        nan
  1194.9684  107.39769        nan        8.5    8.41233        8.4    2.16639  107.39782        nan    58.2997    0.28669     0.2836     0.2903    0.73216    2.16638        1.0     0.0547       sand        nan        nan        nan        nan        nan
   1195.578  107.93235        nan        8.5    8.46209    8.47821    2.20248  107.93235        nan   65.61755     0.2576     0.2753     0.2805    0.72753    2.20248        1.0     0.0431       sand        nan        nan        nan        nan        nan
  1196.1876   104.7712        nan        8.5    8.42554    8.43703    2.23254  104.77115        nan   65.13083    0.29116      0.248     0.2661    0.71304    2.23254        1.0     0.1487       sand        nan        nan        nan        nan        nan
  1196.7972  104.57951        nan        8.5    8.58028     8.6075    2.23351  104.57912        nan   69.93089    0.26507     0.2522     0.2687     0.9319     2.2335     0.9642     0.1351       sand        nan        nan        nan        nan        nan
  1197.4068   94.90938        nan        8.5    8.47418    8.44125    2.22775   94.90938        nan   76.32171    0.27583     0.2409     0.2649    1.49449    2.22775     0.7612      0.197       sand        nan        nan        nan        nan        nan
  1198.0164   83.06965        nan        8.5    8.47602     8.4725    2.38662   83.07004        nan   80.74582    0.22031     0.1039     0.1537     1.3737    2.38665        1.0      0.408       silt        nan        nan        nan        nan        nan
   1198.626  100.82725        nan        8.5    8.43153    8.43563    2.26258  100.82751        nan   86.46387    0.24478     0.2434     0.2541    1.14572    2.26257     0.9273     0.0878       sand        nan        nan        nan        nan        nan
  1199.2356  102.78264        nan        8.5    8.57863    8.58675    2.24811  102.78264        nan   65.77372    0.23135     0.2487     0.2571     1.2842    2.24811     0.8686     0.0689       sand        nan        nan        nan        nan        nan
  1199.8452   99.79305        nan        8.5     8.4556    8.44333    2.30105   99.79189        nan   72.79805    0.25203     0.1998     0.2252    1.86223    2.30105     0.7941     0.2085       silt        nan        nan        nan        nan        nan
  1200.4548   86.93769        nan        8.5    8.52884    8.53375     2.4117     86.936        nan  102.00127    0.30315     0.0746     0.1627    3.14518    2.41171     0.7411     0.7223      shale        nan        nan        nan        nan        nan
  1201.0644   91.03696        nan        8.5    8.52525       8.52    2.44711   91.03696        nan   93.12164    0.29294     0.0744     0.1515    3.82906    2.44711     0.7167     0.6321      shale        nan        nan        nan        nan        nan
   1201.674   95.89506  186.38531        8.5    8.56901    8.55703    2.37011   95.89513  186.38675   90.94298    0.26379     0.1342     0.1858    2.64343    2.37012     0.7518     0.4229       silt        nan        nan        nan        nan        nan
  1202.2836   99.78771   196.3199        8.5    8.58045    8.57854    2.27473   99.78819   196.3201   77.72057    0.26373     0.2293     0.2498    1.63857    2.27472     0.7736     0.1676       sand        nan        nan        nan        nan        nan
  1202.8932    98.6947  197.78351        8.5    8.61076    8.60653    2.25939    98.6947  197.78351   75.94004    0.25231     0.2402     0.2514    1.29065    2.25939     0.8807     0.0921       sand        nan        nan        nan        nan        nan
  1203.5028   96.49171  196.95636        8.5      8.658      8.649    2.27291   96.49088  196.95636   77.78279    0.25241     0.2216     0.2421    1.22958    2.27291     0.9201      0.168       sand        nan        nan        nan        nan        nan
  1204.1124    79.7748  164.81929        8.5    8.38118    8.38875    2.40854   79.77426  164.81944   74.34038    0.17622     0.1339     0.1595    3.07687    2.40854      0.855     0.2095       silt        nan        nan        nan        nan        nan
   1204.722   96.96175  188.36604        8.5    8.62706    8.61953    2.27836   96.96174  188.36604   74.82332    0.28124        0.2     0.2406    1.29803    2.27836     0.8653     0.3335       silt        nan        nan        nan        nan        nan
  1205.3316   95.19751  191.62933        8.5    8.54276    8.52625     2.3297   95.19734  191.62863   81.39567    0.24427     0.1687     0.2026    1.77257     2.3297      0.881     0.2779       silt        nan        nan        nan        nan        nan
  1205.9412    94.1617  188.69386        8.5    8.46771    8.47929    2.40047   94.16186  188.69424   96.56248    0.30695     0.0921      0.174    2.38965    2.40047     0.8044     0.6721      shale        nan        nan        nan        nan        nan
  1206.5508   97.45657  195.69905        8.5    8.43599    8.41875    2.40428   97.45702  195.69983  100.63136    0.35955     0.0708      0.164    4.19681    2.40428      0.637      0.764      shale        nan        nan        nan        nan        nan
  1207.1604   101.7271  203.18027        8.5    8.29788     8.2975    2.42525  101.72694   203.1799   96.01714     0.3984     0.0751     0.1578    3.67888    2.42526     0.7038     0.6779      shale        nan        nan        nan        nan        nan
    1207.77   97.45334  193.05168        8.5    8.39738      8.397    2.42185   97.45383  193.04973   96.53584    0.37794     0.0776     0.1611    2.61206    2.42185     0.8204     0.6847      shale        nan        nan        nan        nan        nan
  1208.3796   97.21237  186.55615        8.5    8.50823    8.53083    2.46856   97.21174  186.55573   96.43621    0.33414     0.0443     0.1291    2.83922    2.46857     0.9433     0.6952      shale        nan        nan        nan        nan        nan
  1208.9892   92.35992  176.83429        8.5    8.49348    8.49375    2.55501   92.35992  176.83429    85.3732    0.31607     0.0059     0.0622    2.39075    2.55501        1.0     0.4612       silt        nan        nan        nan        nan        nan
  1209.5988   94.23521  187.73215        8.5    8.54874      8.557    2.51525   94.23531  187.73236   83.26032    0.30774     0.0499     0.1109    2.03769    2.51524        1.0     0.5003      shale        nan        nan        nan        nan        nan
  1210.2084   96.49496   182.3454        8.5     8.5186      8.525    2.36954   96.49482  182.34479  103.57483    0.31908     0.0966     0.1793    2.47646    2.36954     0.7697      0.678      shale        nan        nan        nan        nan        nan
   1210.818   96.34347  184.90958        8.5    8.42082     8.3595    2.36511   96.34276  184.90837  115.35496    0.33421     0.1013     0.1821    2.63366    2.36511     0.7372     0.6624      shale        nan        nan        nan        nan        nan
  1211.4276   92.75732  181.24023        8.5    8.29183    8.28268    2.42388   92.75748  181.24101  107.32502    0.32276     0.0809     0.1684     3.1513    2.42387     0.7182     0.7175      shale        nan        nan        nan        nan        nan
  1212.0372   95.09377  186.90034        8.5    8.40476    8.43375    2.43686   95.09395  186.90071  105.67489    0.34294     0.0522     0.1507     2.7166    2.43687     0.8507     0.8074      shale        nan        nan        nan        nan        nan
    1212.15   94.68247  186.68846        8.5    8.41646    8.40322    2.45518   94.68198  186.68803   99.86025    0.34899    0.05242    0.13804    2.71398    2.45518    0.91672    0.70215      shale        nan        nan        nan        nan        nan
  1212.6468   92.90971  185.65854        8.5    8.38151    8.37281    2.39163   92.90972  185.65854   73.34646    0.25431      0.141     0.1767    2.15252    2.39163     0.9016     0.2924       silt        nan        nan        nan        nan        nan
