~Version ---------------------------------------------------
VERS.   2.0 : CWLS log ASCII Standard -VERSION 2.0
WRAP.    NO : One line per depth step
DLM . SPACE : Column Data Section Delimiter
~Well ------------------------------------------------------
STRT.m     0.0 : START DEPTH
STOP.m 1282.68 : STOP DEPTH
STEP.m    26.0 : STEP
NULL. -9999.25 : NULL VALUE
COMP.          : COMPANY
WELL.          : WELL
FLD .          : FIELD
LOC .          : LOCATION
PROV.          : PROVINCE
CNTY.          : COUNTY
STAT.          : STATE
CTRY.          : COUNTRY
SRVC.          : SERVICE COMPANY
DATE.          : DATE
UWI .          : UNIQUE WELL ID
API .          : API NUMBER
~Curve Information -----------------------------------------
DEPT       .m    DEPTH : 
AC         .us/ft   AC : 
ACS        .us/ft  ACS : 
BS         .in      BS : 
CALI       .in    CALI : 
CALI_2     .in    CALI : 
DEN        .g/cm3  DEN : 
DT         .us/ft   DT : 
DTS        .us/ft  DTS : 
GR         .gAPI    GR : 
NEU        ._      NEU : 
PHIE       .m3/m3 PHIE : 
PHIT       .m3/m3 PHIT : 
RDEP       .ohm.m RDEP : 
RHOB       .g/cm3 RHOB : 
SWE        ._      SWE : 
VSH        ._      VSH : 
lithology  .           : 
core_phie_1.%          : 
core_phie_2.%          : 
core_phie_3.%          : 
core_phie_4.%          : 
core_phie_5.%          : 
~Params ----------------------------------------------------
~Other -----------------------------------------------------
~ASCII -----------------------------------------------------
# ...
   907.2372  117.78354        nan        8.5    9.47791    9.45687    2.07089  117.78252        nan   75.56704    0.34242     0.2908     0.2973    0.70967    2.07091        1.0     0.0308       sand        nan        nan        nan        nan        nan
   907.8468  122.11765        nan        8.5    9.68886     9.7425    2.09584  122.11802        nan   72.65072    0.37451     0.2254     0.2785    0.67365     2.0958        1.0     0.2486       silt        nan        nan        nan        nan        nan
   908.4564  116.71774        nan        8.5    9.55811     9.5575     1.9733  116.71735        nan   69.64055    0.36433        0.3        0.3    0.78901    1.97331        1.0        0.0        nan        nan        nan        nan        nan        nan
    909.066  116.43188        nan        8.5     8.9573    8.96958    2.08008  116.42873        nan   65.68984    0.33516      0.298     0.2994    0.73621    2.07999        1.0     0.0066       sand        nan        nan        nan        nan        nan
   909.6756  120.06706        nan        8.5    8.99367     9.0125    2.09284  120.06594        nan   72.13205    0.34283     0.2657     0.2901    0.87765    2.09289        1.0     0.1145       sand        nan        nan        nan        nan        nan
   910.2852  117.65438        nan        8.5    8.62562    8.56514    2.14234  117.65264        nan   85.04543    0.33581      0.247     0.2847    0.89638    2.14239        1.0     0.1768       sand        nan        nan        nan        nan        nan
   910.8948  120.39433        nan        8.5    8.62232    8.60075    2.12835  120.39451        nan   75.31932    0.32521     0.2899     0.2971    0.72676    2.12838        1.0     0.0338       sand        nan        nan        nan        nan        nan
   911.5044  119.32127        nan        8.5    8.72288    8.71992    2.11726  119.32234        nan   70.83104    0.34111     0.2504     0.2857    0.70397    2.11729        1.0     0.1654       sand        nan        nan        nan        nan        nan
    912.114  118.22067        nan        8.5    8.56981    8.56667    2.15519  118.22137        nan   68.87182     0.3518     0.2208     0.2771    0.72483    2.15516        1.0     0.2641       silt        nan        nan        nan        nan        nan
   912.7236  114.35337        nan        8.5    8.58245    8.62025    2.14277  114.35344        nan   65.49055    0.32083     0.2568     0.2875    0.73653    2.14278        1.0      0.144       sand        nan        nan        nan        nan        nan
   913.3332  122.54333        nan        8.5    8.60189    8.61792    2.13116  122.54045        nan   76.57243    0.37019     0.2142     0.2752    0.78984    2.13116        1.0     0.2861       silt        nan        nan        nan        nan        nan
   913.9428   116.9423        nan        8.5    8.47341    8.47625    2.15692  116.94635        nan   79.00139    0.33785     0.2371     0.2818    0.84602    2.15689        1.0     0.2098       silt        nan        nan        nan        nan        nan
   914.5524   118.0432        nan        8.5    8.59861    8.60295    2.13876  118.04205        nan   70.56835    0.31873      0.267     0.2905    0.76501     2.1388        1.0     0.1099       sand        nan        nan        nan        nan        nan
    915.162  120.10302        nan        8.5    8.73836     8.7635    2.10332  120.10351        nan   60.30348    0.29139        0.3        0.3    0.73058    2.10329        1.0        0.0        nan        nan        nan        nan        nan        nan
   915.7716  111.07661        nan        8.5    9.12299    9.16512    2.11048   111.0797        nan   62.65191    0.33491     0.2715     0.2918    0.67159    2.11052        1.0     0.0951       sand        nan        nan        nan        nan        nan
   916.3812    117.991        nan        8.5    9.49244    9.54222    2.04735  117.98949        nan   75.20851    0.30428        0.3        0.3    0.79837    2.04736        1.0        0.0        nan        nan        nan        nan        nan        nan
   916.9908  117.01327        nan        8.5    9.62031    9.68325    2.04819  117.01282        nan   77.26479    0.39716     0.2465     0.2846    0.77321    2.04817        1.0     0.1783       sand        nan        nan        nan        nan        nan
   917.6004  115.25391        nan        8.5    9.10696    9.14736    2.08821  115.25827        nan   69.86741    0.35113     0.2661     0.2902    0.79587    2.08818        1.0      0.113       sand        nan        nan        nan        nan        nan
     918.21  118.52642        nan        8.5    8.89267    8.89687    2.09782  118.52594        nan   72.98459     0.3585     0.2483     0.2851    0.79028     2.0978        1.0     0.1722       sand        nan        nan        nan        nan        nan
   918.8196  119.64336        nan        8.5    8.63599     8.5895    2.08547  119.64174        nan   76.80535    0.34777     0.2651     0.2899    0.81159    2.08548        1.0     0.1163       sand        nan        nan        nan        nan        nan
   919.4292  118.95918        nan        8.5    8.70593    8.76453    2.09993  118.95979        nan   73.87732    0.36537     0.2332     0.2807    0.80857    2.09991        1.0     0.2225       silt        nan        nan        nan        nan        nan
   920.0388  116.64928        nan        8.5    9.40723    9.54125    2.11599  116.65054        nan   77.99484    0.34539     0.2652     0.2899    0.85199    2.11598        1.0     0.1161       sand        nan        nan        nan        nan        nan
   920.6484  117.00105        nan        8.5   10.02885    9.97646    2.04864  117.00148        nan   83.75552    0.35601     0.2844     0.2955     0.7521    2.04865        1.0     0.0521       sand        nan        nan        nan        nan        nan
    921.258  118.26052        nan        8.5    9.95115   10.02318    2.06246  118.25775        nan   83.92583    0.41275     0.2038     0.2722     0.8507    2.06247        1.0     0.3206       silt        nan        nan        nan        nan        nan
   921.8676  118.70486        nan        8.5   10.10818   10.14833    2.06922  118.70602        nan    85.6213    0.37569     0.2419     0.2832    0.88534    2.06917        1.0     0.1937       sand        nan        nan        nan        nan        nan
   922.4772  119.23102        nan        8.5    9.14858    8.87491    2.17884  119.23207        nan   86.53952    0.34054     0.2177     0.2763    1.14586    2.17885     0.9791     0.2743       silt        nan        nan        nan        nan        nan
   923.0868  114.71326        nan        8.5    8.81852    8.86944     2.1694  114.71289        nan   84.13209    0.32873     0.2334     0.2808    0.75804     2.1694        1.0     0.2219       silt        nan        nan        nan        nan        nan
   923.6964  114.07417        nan        8.5     8.9169    8.93312    2.19843  114.07384        nan   79.72708     0.3332     0.1971     0.2703     1.1089    2.19839        1.0      0.343       silt        nan        nan        nan        nan        nan
    924.306   113.6844        nan        8.5    8.60483    8.49329    2.20476  113.68248        nan   82.96272    0.34731     0.1765     0.2644    1.34281    2.20476     0.9524     0.4116       silt        nan        nan        nan        nan        nan
   924.9156  113.95114        nan        8.5    8.60335    8.60446    2.18763  113.95271        nan   72.24239    0.32311     0.2402     0.2827    0.76459    2.18761        1.0     0.1994       sand        nan        nan        nan        nan        nan
   925.5252  108.14211        nan        8.5    8.91598    8.86989    2.22378   108.1468        nan   75.72479    0.27938     0.2355     0.2692    1.05395    2.22373        1.0      0.158       sand        nan        nan        nan        nan        nan
     925.75  105.43279        nan        8.5    8.54149     8.4424    2.25967  105.43382        nan   80.93596    0.23367    0.23552    0.25119    2.31598     2.2597        1.0    0.07337       sand        nan        nan        nan        nan        nan
