~Version ---------------------------------------------------
VERS.   2.0 : CWLS log ASCII Standard -VERSION 2.0
WRAP.    NO : One line per depth step
DLM . SPACE : Column Data Section Delimiter
~Well ------------------------------------------------------
STRT.m     0.0 : START DEPTH
STOP.m 1282.68 : STOP DEPTH
STEP.m    26.0 : STEP
NULL. -9999.25 : NULL VALUE
COMP.          : COMPANY
WELL.          : WELL
FLD .          : FIELD
LOC .          : LOCATION
PROV.          : PROVINCE
CNTY.          : COUNTY
STAT.          : STATE
CTRY.          : COUNTRY
SRVC.          : SERVICE COMPANY
DATE.          : DATE
UWI .          : UNIQUE WELL ID
API .          : API NUMBER
~Curve Information -----------------------------------------
DEPT       .m    DEPTH : 
AC         .us/ft   AC : 
ACS        .us/ft  ACS : 
BS         .in      BS : 
CALI       .in    CALI : 
CALI_2     .in    CALI : 
DEN        .g/cm3  DEN : 
DT         .us/ft   DT : 
DTS        .us/ft  DTS : 
GR         .gAPI    GR : 
NEU        ._      NEU : 
PHIE       .m3/m3 PHIE : 
PHIT       .m3/m3 PHIT : 
RDEP       .ohm.m RDEP : 
RHOB       .g/cm3 RHOB : 
SWE        ._      SWE : 
VSH        ._      VSH : 
lithology  .           : 
core_phie_1.%          : 
core_phie_2.%          : 
core_phie_3.%          : 
core_phie_4.%          : 
core_phie_5.%          : 
~Params ----------------------------------------------------
~Other -----------------------------------------------------
~ASCII -----------------------------------------------------
# ...
  1002.9444   111.2478        nan        8.5    8.42443     8.4275    2.17136  111.24728        nan   86.58297    0.33541     0.2113     0.2744    0.92225    2.17135        1.0     0.2956       silt        nan        nan        nan        nan        nan
   1003.554  112.20384        nan        8.5    8.38104    8.37948    2.24715  112.20277        nan   97.98287     0.3149     0.1809     0.2604    1.23682    2.24713     0.9817     0.3727       silt        nan        nan        nan        nan        nan
  1004.1636  111.55087        nan        8.5    8.33863    8.34107    2.26472  111.55213        nan   96.11123     0.3176     0.1678     0.2529    1.30573    2.26472     0.9872     0.3987       silt        nan        nan        nan        nan        nan
  1004.7732   114.0935        nan        8.5    8.27179    8.26179    2.26697  114.09214        nan   95.59863    0.33929     0.1459     0.2549    1.46375    2.26698     0.9387     0.5109      shale        nan        nan        nan        nan        nan
  1005.3828  113.54699        nan        8.5    8.30834    8.30925    2.29823  113.55004        nan   83.05201    0.33505     0.1272     0.2362    2.13586    2.29824      0.842     0.5109      shale        nan        nan        nan        nan        nan
  1005.9924  106.34506        nan        8.5    8.30826    8.31054    2.30968  106.34691        nan  105.34804    0.34427     0.1025     0.2292    1.64918    2.30967        1.0     0.5939      shale        nan        nan        nan        nan        nan
   1006.602  107.07105        nan        8.5    8.39872     8.4155    2.13622   107.0665        nan   84.44875    0.36049     0.2437     0.2838    0.75022    2.13626        1.0     0.1876       sand        nan        nan        nan        nan        nan
  1007.2116  112.72829        nan        8.5    8.39961    8.40136    2.13692  112.72744        nan   76.06169    0.33282     0.2516      0.286    0.85147    2.13692        1.0     0.1613       sand        nan        nan        nan        nan        nan
  1007.8212  113.48613        nan        8.5    8.40147    8.39025    2.13491   113.4842        nan   78.92846    0.34906     0.2384     0.2822     1.0273    2.13492     0.9794     0.2053       silt        nan        nan        nan        nan        nan
  1008.4308  116.51869        nan        8.5     8.4494    8.44864    2.13077  116.52124        nan   87.86903     0.3014      0.292     0.2977    1.32648    2.13077     0.8044     0.0267       sand        nan        nan        nan        nan        nan
  1009.0404  112.00166        nan        8.5    8.50515    8.50062    2.17069  112.00541        nan   94.65334    0.34105     0.2006     0.2713     1.1136    2.17068     0.9868     0.3315       silt        nan        nan        nan        nan        nan
    1009.65   111.5687        nan        8.5    8.47083     8.4755    2.26526  111.56877        nan   99.78184    0.32337      0.154      0.249    1.36734    2.26523     0.9844      0.445       silt        nan        nan        nan        nan        nan
  1010.2596  109.92171        nan        8.5    8.47246    8.47475    2.25326  109.92119        nan    99.8828    0.36157     0.1295     0.2508    1.47886    2.25328     0.9594     0.5684      shale        nan        nan        nan        nan        nan
  1010.8692  108.13077        nan        8.5    8.42201    8.38575    2.27307  108.13161        nan  103.71562    0.31951     0.1496     0.2443    1.60505    2.27305     0.9264     0.4436       silt        nan        nan        nan        nan        nan
  1011.4788  107.48683        nan        8.5    8.54657    8.52484    2.28835  107.48694        nan   84.58836     0.3231     0.1435     0.2433    1.33995    2.28837        1.0     0.4675       silt        nan        nan        nan        nan        nan
    1012.08  109.11485        nan        8.5    8.62092    8.60069    2.35121  109.11343        nan   78.03825    0.29227    0.10588    0.19157    1.72498    2.35115        1.0    0.46483       silt        nan        nan        nan        nan        nan
   1012.698   110.8274        nan        8.5    8.54884    8.56042    2.19512  110.82716        nan   63.72884    0.30583     0.2488       0.28    0.71557    2.19513        1.0     0.1708       sand        nan        nan        nan        nan        nan
  1013.3076  110.56174        nan        8.5    8.67884    8.67091    2.16575  110.56225        nan    62.3855    0.30386     0.2785     0.2916    0.74349    2.16575        1.0     0.0717       sand        nan        nan        nan        nan        nan
  1013.9172  108.07011        nan        8.5    9.14712      9.103    2.14181  108.06953        nan   67.08203    0.31275     0.2702     0.2884    0.71026    2.14181        1.0     0.0994       sand        nan        nan        nan        nan        nan
  1014.5268  106.65527        nan        8.5    9.20117    9.06375    2.10413  106.65542        nan   66.37698    0.33847     0.2715     0.2889     0.7775    2.10414        1.0     0.0949       sand        nan        nan        nan        nan        nan
  1015.1364  109.79586        nan        8.5    9.89536     9.9075    2.20527  109.79589        nan   58.37866    0.28622     0.2427     0.2624    0.76132    2.20513        1.0     0.1079       sand        nan        nan        nan        nan        nan
   1015.746  112.18735        nan        8.5     9.7982    9.79833    2.16682  112.18572        nan     48.512    0.33428        0.3        0.3    0.71233    2.16685        1.0        0.0        nan        nan        nan        nan        nan        nan
  1016.3556  114.70288        nan        8.5    8.93628    8.89844    2.12166  114.70296        nan   68.35915    0.30209        0.3        0.3    0.78777    2.12164        1.0        0.0        nan        nan        nan        nan        nan        nan
  1016.9652  112.93696        nan        8.5    9.87386       9.92    2.17429   112.9387        nan   78.89262    0.31923     0.2427     0.2776    0.70252    2.17425        1.0      0.191       sand        nan        nan        nan        nan        nan
  1017.5748  110.27754        nan        8.5    9.69338    9.69687     2.1697  110.27673        nan   70.90143    0.32842     0.2427     0.2776    0.65369    2.16972        1.0     0.1911       sand        nan        nan        nan        nan        nan
  1018.1844  116.02337        nan        8.5    9.65985    9.69292     2.1294  116.02277        nan   71.93737    0.31381     0.2926     0.2971    0.73389    2.12942        1.0     0.0246       sand        nan        nan        nan        nan        nan
   1018.794  113.42613        nan        8.5    9.04055    9.06453    2.13736  113.42849        nan   78.01682        nan      0.255     0.2824    0.75489    2.13737        1.0       0.15       sand        nan        nan        nan        nan        nan
  1019.4036  114.52015        nan        8.5    9.27864    9.23175    2.15244  114.52001        nan   71.70119    0.39667     0.1938     0.2586    0.74145    2.15247        1.0     0.3539       silt        nan        nan        nan        nan        nan
  1020.0132  114.03323        nan        8.5    8.82173    8.60688    2.31123  114.03597        nan   73.49712    0.21221     0.1563     0.1992    1.43934    2.31114        1.0     0.2343       silt        nan        nan        nan        nan        nan
  1020.6228  109.36351        nan        8.5       9.53       9.53    2.23569  109.35778        nan   79.14809    0.26699     0.2739     0.2754    0.92331    2.23576        1.0     0.0082       sand        nan        nan        nan        nan        nan
  1021.2324  114.94514        nan        8.5    8.37199    8.38875    2.04333  114.94411        nan   71.50528    0.30288        0.3        0.3    0.79939    2.04311        1.0        0.0        nan        nan        nan        nan        nan        nan
   1021.842  112.61894        nan        8.5    8.39816       8.42    2.18335  112.62353        nan   65.76109    0.30361     0.2568     0.2831    0.69635    2.18331        1.0      0.144       sand        nan        nan        nan        nan        nan
