~Version ---------------------------------------------------
VERS.   2.0 : CWLS log ASCII Standard -VERSION 2.0
WRAP.    NO : One line per depth step
DLM . SPACE : Column Data Section Delimiter
~Well ------------------------------------------------------
STRT.m     0.0 : START DEPTH
STOP.m 1282.68 : STOP DEPTH
STEP.m    26.0 : STEP
NULL. -9999.25 : NULL VALUE
COMP.          : COMPANY
WELL.          : WELL
FLD .          : FIELD
LOC .          : LOCATION
PROV.          : PROVINCE
CNTY.          : COUNTY
STAT.          : STATE
CTRY.          : COUNTRY
SRVC.          : SERVICE COMPANY
DATE.          : DATE
UWI .          : UNIQUE WELL ID
API .          : API NUMBER
~Curve Information -----------------------------------------
DEPT       .m    DEPTH : 
AC         .us/ft   AC : 
ACS        .us/ft  ACS : 
BS         .in      BS : 
CALI       .in    CALI : 
CALI_2     .in    CALI : 
DEN        .g/cm3  DEN : 
DT         .us/ft   DT : 
DTS        .us/ft  DTS : 
GR         .gAPI    GR : 
NEU        ._      NEU : 
PHIE       .m3/m3 PHIE : 
PHIT       .m3/m3 PHIT : 
RDEP       .ohm.m RDEP : 
RHOB       .g/cm3 RHOB : 
SWE        ._      SWE : 
VSH        ._      VSH : 
lithology  .           : 
core_phie_1.%          : 
core_phie_2.%          : 
core_phie_3.%          : 
core_phie_4.%          : 
core_phie_5.%          : 
~Params ----------------------------------------------------
~Other -----------------------------------------------------
~ASCII -----------------------------------------------------
# ...
  1175.4612   92.74609        nan        8.5    8.86627    8.87375    2.56608   92.74565        nan   91.07025    0.43902        0.0     0.0824     4.4469    2.56607        1.0     0.6758      shale        nan        nan        nan        nan        nan
  1176.0708   89.79156        nan        8.5    8.76565     8.8075    2.54439   89.79157        nan   79.24017    0.36387     0.0198      0.079    3.61637    2.54439        1.0     0.4853       silt        nan        nan        nan        nan        nan
  1176.6804   90.33715        nan        8.5    8.56948    8.55917    2.58702   90.33715        nan   91.34943    0.49315        0.0     0.0929    4.60116    2.58702        1.0     0.7618      shale        nan        nan        nan        nan        nan
    1177.29   94.50992        nan        8.5    8.64184    8.64281    2.53414   94.51127        nan   98.29285    0.49033        0.0     0.1092     4.4712    2.53412        1.0     0.8952      shale        nan        nan        nan        nan        nan
  1177.8996  103.35021        nan        8.5    8.49052     8.4675    2.50642  103.35021        nan  119.55888    0.47831        0.0      0.122    3.98234    2.50642        1.0        1.0      shale        nan        nan        nan        nan        nan
  1178.5092  100.69425        nan        8.5    8.54572    8.54875    2.50502  100.69425        nan  118.38333     0.4442        0.0      0.122    3.66978    2.50502        1.0        1.0      shale        nan        nan        nan        nan        nan
  1179.1188   97.41184        nan        8.5    8.57996    8.58797    2.57733    97.4118        nan  108.14554     0.4343        0.0      0.122    3.83447    2.57733        1.0        1.0      shale        nan        nan        nan        nan        nan
  1179.7284   93.62719        nan        8.5     8.5525    8.52556    2.56035   93.62719        nan   94.21017    0.44825        0.0     0.0841    3.93723    2.56035        1.0     0.6895      shale        nan        nan        nan        nan        nan
   1180.338   93.15916        nan        8.5    8.54804    8.56863    2.55862   93.15916        nan   83.12696    0.52269     0.0052     0.0804    4.18925    2.55862        1.0     0.6167      shale        nan        nan        nan        nan        nan
  1180.9476   103.0444        nan        8.5    8.48592    8.47667     2.4953   103.0446        nan  110.32184     0.5495        0.0      0.122    4.02992    2.49529        1.0        1.0      shale        nan        nan        nan        nan        nan
  1181.5572   98.78129        nan        8.5    8.52715      8.525    2.49219   98.78129        nan  113.82816     0.4148        0.0      0.122    4.20518    2.49219        1.0        1.0      shale        nan        nan        nan        nan        nan
  1182.1668   94.40825        nan        8.5     8.4683    8.44969    2.52951   94.40825        nan  111.92217     0.4369        0.0      0.122    4.40493    2.52951        1.0        1.0      shale        nan        nan        nan        nan        nan
  1182.7764   96.23359        nan        8.5    8.54113    8.53875     2.5279   96.23311        nan   120.7158    0.37659        0.0      0.122    4.49535     2.5279        1.0        1.0      shale        nan        nan        nan        nan        nan
    1183.34   89.53926        nan        8.5    8.53779      8.537    2.47163   89.53846        nan  123.32072    0.33877    0.04611    0.13696     4.2751    2.47162    0.77677    0.74487      shale        nan        nan        nan        nan        nan
   1183.386   88.94977        nan        8.5    8.53707    8.53625    2.46574   88.94936        nan  121.98322    0.33476      0.052     0.1401    4.25824    2.46574     0.7615     0.7222      shale        nan        nan        nan        nan        nan
  1183.9956   92.06982        nan        8.5    8.50758    8.51937    2.52314   92.06982        nan   107.0394    0.35409        0.0     0.1145    4.46077    2.52314        1.0     0.9389      shale        nan        nan        nan        nan        nan
  1184.6052   99.67522        nan        8.5    8.54425    8.57625     2.5166   99.67477        nan  117.11551    0.32877     0.0231     0.1159    3.91167    2.51657     0.9343     0.7612      shale        nan        nan        nan        nan        nan
  1185.2148   95.72039        nan        8.5    8.45676    8.44125    2.49733   95.71911        nan   107.1693     0.3392     0.0157      0.113    4.04367    2.49735     0.9422     0.7978      shale        nan        nan        nan        nan        nan
  1185.8244   92.52895        nan        8.5     8.4968    8.48625    2.60275   92.52896        nan  116.56294    0.30419        0.0     0.1115    4.05302    2.60275        1.0     0.9144      shale        nan        nan        nan        nan        nan
   1186.434  102.49363        nan        8.5    8.47278     8.4585    2.48818  102.49364        nan  131.08672    0.30969     0.0352     0.1266    3.47674    2.48818     0.9193     0.7499      shale        nan        nan        nan        nan        nan
  1187.0436   97.92513        nan        8.5    8.59105    8.62156    2.45161   97.92476        nan   136.0654    0.40168        0.0      0.122    3.17198     2.4516        1.0        1.0      shale        nan        nan        nan        nan        nan
  1187.6532   85.42007        nan        8.5    8.62682    8.65344    2.47343   85.42007        nan   96.23675    0.37173     0.0514     0.1324    2.64912    2.47343     0.9611     0.6642      shale        nan        nan        nan        nan        nan
  1188.2628   96.87035        nan        8.5      8.585      8.585    2.30452   96.87138        nan   79.15569    0.29125     0.2067      0.237    2.91853    2.30449        1.0      0.248       silt        nan        nan        nan        nan        nan
  1188.8724  103.03291        nan        8.5     8.6962    8.69625    2.25106  103.03299        nan   72.08371    0.26232     0.2353     0.2548    1.06016    2.25107     0.9488     0.1604       sand        nan        nan        nan        nan        nan
   1189.482  102.28455        nan        8.5    8.63798       8.64    2.23033  102.28456        nan   70.84161    0.27817     0.2409     0.2648     1.1686    2.23033     0.8635     0.1958       sand        nan        nan        nan        nan        nan
  1190.0916   97.57207        nan        8.5    8.62295    8.57375    2.22983   97.57207        nan   71.59592    0.28554      0.231      0.259    2.29864    2.22983        1.0       0.23       silt        nan        nan        nan        nan        nan
  1190.7012   96.80845        nan        8.5    8.47509    8.43419    2.34051   96.80858        nan   71.19018    0.32809     0.1596     0.1935    2.98695    2.34052        1.0     0.2781       silt        nan        nan        nan        nan        nan
  1191.3108   97.72918        nan        8.5    8.44233    8.48125    2.28875   97.72918        nan   80.45653    0.31845     0.1893     0.2343    2.97713    2.28875        1.0      0.369       silt        nan        nan        nan        nan        nan
  1191.9204  102.99297        nan        8.5    8.41735       8.39    2.37743  102.99297        nan   86.03765    0.30151     0.1265      0.183    2.48489    2.37743     0.7804     0.4631       silt        nan        nan        nan        nan        nan
    1192.53  103.72451        nan        8.5    8.54368    8.55542    2.40541  103.72477        nan  100.03117        nan     0.1031     0.1666    1.25095    2.40542        1.0       0.52      shale        nan        nan        nan        nan        nan
  1193.1396  101.64383        nan        8.5    8.51326     8.5725    2.40599  101.64383        nan   94.01797    0.31968     0.0959     0.1766    1.83846    2.40599      0.908     0.6621      shale        nan        nan        nan        nan        nan
  1193.7492  103.93043        nan        8.5    8.38802    8.35125    2.20266  103.93043        nan   64.74689    0.28384     0.2827     0.2897    1.07919    2.20266      0.845     0.0577       sand        nan        nan        nan        nan        nan
