~Version ---------------------------------------------------
VERS.   2.0 : CWLS log ASCII Standard -VERSION 2.0
WRAP.    NO : One line per depth step
DLM . SPACE : Column Data Section Delimiter
~Well ------------------------------------------------------
STRT.m     0.0 : START DEPTH
STOP.m 1282.68 : STOP DEPTH
STEP.m    26.0 : STEP
NULL. -9999.25 : NULL VALUE
COMP.          : COMPANY
WELL.          : WELL
FLD .          : FIELD
LOC .          : LOCATION
PROV.          : PROVINCE
CNTY.          : COUNTY
STAT.          : STATE
CTRY.          : COUNTRY
SRVC.          : SERVICE COMPANY
DATE.          : DATE
UWI .          : UNIQUE WELL ID
API .          : API NUMBER
~Curve Information -----------------------------------------
DEPT       .m    DEPTH : 
AC         .us/ft   AC : 
ACS        .us/ft  ACS : 
BS         .in      BS : 
CALI       .in    CALI : 
CALI_2     .in    CALI : 
DEN        .g/cm3  DEN : 
DT         .us/ft   DT : 
DTS        .us/ft  DTS : 
GR         .gAPI    GR : 
NEU        ._      NEU : 
PHIE       .m3/m3 PHIE : 
PHIT       .m3/m3 PHIT : 
RDEP       .ohm.m RDEP : 
RHOB       .g/cm3 RHOB : 
SWE        ._      SWE : 
VSH        ._      VSH : 
lithology  .           : 
core_phie_1.%          : 
core_phie_2.%          : 
core_phie_3.%          : 
core_phie_4.%          : 
core_phie_5.%          : 
~Params ----------------------------------------------------
~Other -----------------------------------------------------
~ASCII -----------------------------------------------------
# ...
  1137.0564   85.28048        nan        8.5      8.376    8.36375    2.53572   85.28098        nan   63.04839    0.11779     0.0415      0.061    7.44207     2.5357        1.0     0.1601       sand        nan        nan        nan        nan        nan
   1137.666   103.1898        nan        8.5    8.56981    8.58554    2.69688   103.1898        nan   75.68176    0.23922        0.0     0.0554     4.6751    2.69688        1.0     0.4543       silt        nan        nan        nan        nan        nan
  1138.2756  104.19942        nan        8.5    8.51025    8.52614    2.34091  104.20024        nan   79.41753     0.3229     0.1398     0.1995    1.65672    2.34089      0.918     0.4892       silt        nan        nan        nan        nan        nan
  1138.8852  104.04253        nan        8.5    8.67757    8.66552    2.39541  104.04128        nan   91.73476    0.36636     0.0807     0.1699    2.40355     2.3954     0.8634     0.7309      shale        nan        nan        nan        nan        nan
  1139.4948  108.72844        nan        8.5    8.67652    8.64196    2.29681  108.72844        nan   68.08006    0.28737     0.2147     0.2397    1.76851    2.29681      0.791     0.2052       silt        nan        nan        nan        nan        nan
  1140.1044  108.72462        nan        8.5     8.5217    8.49583    2.25622  108.72407        nan   73.15631    0.31005      0.181     0.2294    2.33116    2.25621     0.6912     0.3967       silt        nan        nan        nan        nan        nan
   1140.714  112.90469        nan        8.5    8.82159     8.8375    2.35021  112.90414        nan  105.90397    0.40492     0.0501     0.1517    2.55408    2.35021     0.9309     0.8332      shale        nan        nan        nan        nan        nan
  1141.3236  109.13775        nan        8.5    8.57846    8.53125    2.38601  109.13821        nan  101.38597    0.39549     0.1116     0.1867    3.12356    2.38601      0.699     0.6155      shale        nan        nan        nan        nan        nan
  1141.9332  101.51862        nan        8.5    8.65712    8.66344    2.33537  101.51842        nan   90.58928    0.33967     0.1591     0.2164    1.78844     2.3354     0.8224     0.4697       silt        nan        nan        nan        nan        nan
  1142.5428  105.91684        nan        8.5    8.85917    8.83167    2.20515  105.91588        nan   71.13519    0.32936     0.2369     0.2626    1.03287    2.20518      0.946     0.2103       silt        nan        nan        nan        nan        nan
  1143.1524  106.04836        nan        8.5    8.76676    8.78605    2.32573  106.04836        nan   95.08221    0.40006     0.0492     0.1512    2.23271    2.32573     0.9986      0.836      shale        nan        nan        nan        nan        nan
   1143.762  119.00697        nan        8.5    8.78099    8.77583    2.34629  119.00697        nan  104.24916    0.46508     0.0211     0.1345    3.17411    2.34629     0.9434     0.9297      shale        nan        nan        nan        nan        nan
  1144.3716  115.80582        nan        8.5    8.61719    8.63146    2.35413  115.80611        nan  105.07397     0.4055     0.0867     0.1734    3.33009    2.35413     0.7196     0.7108      shale        nan        nan        nan        nan        nan
  1144.9812  106.45768        nan        8.5    8.48724    8.48832    2.37514  106.45818        nan      90.56    0.34023     0.1238     0.1907    2.70272    2.37514     0.7412      0.549      shale        nan        nan        nan        nan        nan
  1145.5908  104.37086        nan        8.5    8.73726    8.75577    2.33924  104.37085        nan   91.38943    0.31314     0.1567     0.2079    2.67719    2.33924     0.7023     0.4195       silt        nan        nan        nan        nan        nan
  1146.2004  101.34029        nan        8.5    8.62118    8.56549    2.23454  101.34075        nan   74.52367    0.34142     0.1914     0.2356    1.64284    2.23455     0.8069     0.3619       silt        nan        nan        nan        nan        nan
    1146.81  101.70387        nan        8.5    8.60691    8.63333     2.3024  101.70444        nan   89.93622    0.32301     0.1793     0.2269    1.71442     2.3024     0.8137       0.39       silt        nan        nan        nan        nan        nan
  1147.4196  103.46021        nan        8.5    8.66297    8.70375    2.27012  103.46021        nan   73.76279    0.33678     0.1971     0.2389    0.96851    2.27012        1.0      0.343       silt        nan        nan        nan        nan        nan
  1148.0292  112.55737        nan        8.5    8.66112    8.63161    2.17757  112.55724        nan   77.96336    0.33159     0.2411      0.265    0.97514    2.17757     0.9656     0.1963       sand        nan        nan        nan        nan        nan
  1148.6388  101.09743        nan        8.5    8.42325    8.39766    2.36684  101.09894        nan   69.73595    0.16491     0.1534     0.1534    1.30915    2.36681        1.0        0.0        nan        nan        nan        nan        nan        nan
  1149.2484   85.03483        nan        8.5    8.33707    8.31606    2.57295   85.03483        nan   53.79416    0.12268     0.0727     0.0727    5.12667    2.57295        1.0        0.0        nan        nan        nan        nan        nan        nan
   1149.858   96.17993        nan        8.5     8.4131    8.41875    2.23738   96.17425        nan   84.91394     0.3164     0.2234     0.2546    1.16912     2.2374      0.906     0.2552       silt        nan        nan        nan        nan        nan
  1150.4676  108.72762        nan        8.5    8.60159      8.585    2.22795  108.72749        nan   96.54316    0.42358     0.1134     0.1893    2.60545    2.22792     0.7545     0.6219      shale        nan        nan        nan        nan        nan
  1151.0772  110.56956        nan        8.5     8.6691    8.67893    2.36566  110.56956        nan    93.1513    0.38068     0.1163      0.191    2.47736    2.36566      0.768     0.6125      shale        nan        nan        nan        nan        nan
  1151.6868  106.15621        nan        8.5    8.53964    8.49583    2.36184  106.15573        nan   97.78053    0.44918     0.0417     0.1467    2.67121    2.36184     0.9396     0.8609      shale        nan        nan        nan        nan        nan
  1152.2964  110.78292        nan        8.5    8.71564    8.72708    2.29535  110.78327        nan   87.87136    0.39359     0.1327     0.2007     1.6309    2.29536     0.9094     0.5576      shale        nan        nan        nan        nan        nan
   1152.906  102.65904        nan        8.5    8.73099    8.70538    2.23908  102.65903        nan   73.19481    0.31975     0.2212     0.2533    1.04185    2.23908     0.9623     0.2625       silt        nan        nan        nan        nan        nan
  1153.5156   106.0052        nan        8.5    8.58839    8.58083    2.22626  106.00433        nan   83.49438    0.33368     0.2153     0.2497    1.29929    2.22625     0.8698     0.2823       silt        nan        nan        nan        nan        nan
  1154.1252  108.16582        nan        8.5    8.59039     8.6048    2.35174  108.16643        nan  103.97072    0.34182     0.1254     0.1961    2.43596    2.35172     0.7579     0.5798      shale        nan        nan        nan        nan        nan
  1154.7348  106.27947        nan        8.5    8.50565    8.50191    2.33455  106.27947        nan  110.80355    0.37547     0.1277     0.1978    2.57452    2.33455     0.7319     0.5742      shale        nan        nan        nan        nan        nan
    1155.33  112.52261        nan        8.5    8.60771    8.57997    2.22769   112.5226        nan  102.15398    0.36218    0.19416    0.23719    1.10719    2.22769    0.97623    0.35278       silt        nan        nan        nan        nan        nan
  1155.3444  112.48877        nan        8.5    8.59953    8.57179    2.22491  112.48876        nan  102.38464    0.36104     0.1967     0.2387    1.09462    2.22491      0.977     0.3443       silt        nan        nan        nan        nan        nan
