~Version ---------------------------------------------------
VERS.   2.0 : CWLS log ASCII Standard -VERSION 2.0
WRAP.    NO : One line per depth step
DLM . SPACE : Column Data Section Delimiter
~Well ------------------------------------------------------
STRT.m     0.0 : START DEPTH
STOP.m 1282.68 : STOP DEPTH
STEP.m    26.0 : STEP
NULL. -9999.25 : NULL VALUE
COMP.          : COMPANY
WELL.          : WELL
FLD .          : FIELD
LOC .          : LOCATION
PROV.          : PROVINCE
CNTY.          : COUNTY
STAT.          : STATE
CTRY.          : COUNTRY
SRVC.          : SERVICE COMPANY
DATE.          : DATE
UWI .          : UNIQUE WELL ID
API .          : API NUMBER
~Curve Information -----------------------------------------
DEPT       .m    DEPTH : 
AC         .us/ft   AC : 
ACS        .us/ft  ACS : 
BS         .in      BS : 
CALI       .in    CALI : 
CALI_2     .in    CALI : 
DEN        .g/cm3  DEN : 
DT         .us/ft   DT : 
DTS        .us/ft  DTS : 
GR         .gAPI    GR : 
NEU        ._      NEU : 
PHIE       .m3/m3 PHIE : 
PHIT       .m3/m3 PHIT : 
RDEP       .ohm.m RDEP : 
RHOB       .g/cm3 RHOB : 
SWE        ._      SWE : 
VSH        ._      VSH : 
lithology  .           : 
core_phie_1.%          : 
core_phie_2.%          : 
core_phie_3.%          : 
core_phie_4.%          : 
core_phie_5.%          : 
~Params ----------------------------------------------------
~Other -----------------------------------------------------
~ASCII -----------------------------------------------------
# ...
  1060.8564  116.47801        nan        8.5    8.38243    8.39125    2.36114   116.4782        nan   92.45988    0.28938     0.1242     0.2098    1.98686    2.36119     0.9047     0.4678       silt        nan        nan        nan        nan        nan
   1061.466  117.71487        nan        8.5     8.3891    8.39812    2.28372  117.71489        nan   95.56881    0.36808     0.1296     0.2335    1.77936    2.28372     0.8648     0.5681      shale        nan        nan        nan        nan        nan
  1062.0756  113.85699        nan        8.5    8.37872    8.37021    2.31822  113.85772        nan  101.75558    0.37802     0.0777     0.2133    1.99356    2.31822     0.9233     0.7409      shale        nan        nan        nan        nan        nan
  1062.6852  110.47826        nan        8.5    8.40751    8.41922    2.33037  110.47873        nan  102.39308    0.38813     0.0772      0.213    2.19114    2.33036      0.882     0.7428      shale        nan        nan        nan        nan        nan
  1063.2948  112.26611        nan        8.5    8.43925    8.44687    2.29335  112.26699        nan  106.10839    0.38042     0.1261     0.2321    2.04819    2.29337     0.8114     0.5796      shale        nan        nan        nan        nan        nan
  1063.9044  112.20654        nan        8.5    8.45098    8.45062     2.2919  112.20559        nan   94.28615     0.3599     0.1316     0.2343     1.8833    2.29189     0.8368     0.5614      shale        nan        nan        nan        nan        nan
   1064.514  115.95656        nan        8.5    8.41872    8.39313    2.31401  115.95685        nan   96.44528    0.33879     0.1278     0.2281    1.92747    2.31402     0.8484     0.5481      shale        nan        nan        nan        nan        nan
  1065.1236  114.59362        nan        8.5    8.37252    8.36411    2.30421  114.59305        nan   96.49565    0.37525     0.0901     0.2181    2.08368    2.30421     0.8734     0.6995      shale        nan        nan        nan        nan        nan
  1065.7332  112.23603        nan        8.5    8.27075       8.25    2.36055  112.23625        nan   103.5131    0.37715     0.0547     0.2017    2.48408    2.36055     0.8933     0.8033      shale        nan        nan        nan        nan        nan
  1066.3428  110.88863        nan        8.5    8.32856    8.33344    2.36241  110.88896        nan   96.04188    0.36425     0.0745     0.2021    2.27556    2.36242     0.9029     0.6979      shale        nan        nan        nan        nan        nan
  1066.9524  114.35979        nan        8.5    8.38442    8.36224    2.28035  114.35917        nan   91.91117    0.35653     0.1367     0.2363    1.46663    2.28036     0.9382     0.5444      shale        nan        nan        nan        nan        nan
   1067.562  114.00127        nan        8.5     8.4872    8.50183    2.28312  114.00173        nan  102.39239    0.34607     0.1507     0.2417    1.91303    2.28311     0.8003     0.4976       silt        nan        nan        nan        nan        nan
  1068.1716  109.80072        nan        8.5    8.46469    8.46625    2.26634   109.8021        nan   95.81276    0.28304     0.2052     0.2551    1.73166    2.26636     0.7974     0.2729       silt        nan        nan        nan        nan        nan
  1068.7812  107.43872        nan        8.5    8.45864     8.4465    2.32465  107.43819        nan   69.20224    0.19194     0.1786     0.1992    2.31525    2.32462      0.889     0.1125       sand        nan        nan        nan        nan        nan
  1069.3908   97.39979        nan        8.5    8.46083    8.47708     2.4339   97.40246        nan   74.59732    0.25273     0.0633     0.1453    2.02201    2.43389        1.0     0.4484       silt        nan        nan        nan        nan        nan
    1069.44   96.41155        nan        8.5    8.47699    8.46334    2.43788   96.41232        nan   77.43958     0.2542    0.06143    0.14737    2.06016    2.43789        1.0    0.46997       silt        nan        nan        nan        nan        nan
  1070.0004    107.083        nan        8.5    8.28811        0.0    2.39215  107.07941        nan   67.38401    0.24736     0.1479     0.1819    1.39188     2.3922        1.0     0.1861       sand        nan        nan        nan        nan        nan
    1070.61  114.82052        nan        8.5    8.41234        0.0    2.18352  114.82053        nan   62.36828    0.26433     0.2903     0.2945    0.83934    2.18351     0.9951      0.023       sand        nan        nan        nan        nan        nan
  1071.2196  116.99663        nan        8.5    8.39955        0.0    2.21569  116.99503        nan   69.02586    0.27816      0.254     0.2777    0.86499    2.21569        1.0     0.1294       sand        nan        nan        nan        nan        nan
  1071.8292  116.88558        nan        8.5    8.45737        0.0    2.19205   116.8856        nan   65.66344    0.31842     0.2377     0.2757     0.8288    2.19205        1.0     0.2078       silt        nan        nan        nan        nan        nan
  1072.4388  112.67303        nan        8.5    8.42678        0.0    2.25191  112.67394        nan   69.09463    0.27578     0.2134     0.2466    0.80668    2.25187        1.0     0.1814       sand        nan        nan        nan        nan        nan
  1073.0484   102.0368        nan        8.5     8.4063        0.0    2.39811  102.03572        nan  105.25108    0.35994      0.029     0.1791    2.13463    2.39811        1.0     0.8201      shale        nan        nan        nan        nan        nan
   1073.658  100.45078        nan        8.5    8.41707        0.0    2.40947  100.44967        nan   86.01351    0.37558     0.0657      0.168    2.86895    2.40948     0.9442     0.5592      shale        nan        nan        nan        nan        nan
  1074.2676  110.85989        nan        8.5     8.4365        0.0    2.32371   110.8586        nan   71.43182    0.27173     0.1513     0.2156    1.68652    2.32371     0.9517     0.3517       silt        nan        nan        nan        nan        nan
  1074.8772  125.39269        nan        8.5    8.47183        0.0    2.31545  125.39316        nan   65.99258    0.29713     0.1842     0.2241    0.96391    2.31547        1.0     0.2177       silt        nan        nan        nan        nan        nan
  1075.4868   97.05424        nan        8.5    8.57445        0.0    2.33169   97.05586        nan   63.67564    0.15067     0.1965     0.1965    7.47865    2.33168        1.0        0.0        nan        nan        nan        nan        nan        nan
  1076.0964   74.87617        nan        8.5    8.47851        0.0    2.62608   74.87695        nan   47.86789    0.06423     0.0237     0.0237    2.48804    2.62611        1.0        0.0        nan        nan        nan        nan        nan        nan
   1076.706   66.43687        nan        8.5    8.41642        0.0    2.53313   66.43874        nan   48.17025        nan     0.0643     0.0643    2.72392     2.5331        1.0        0.0        nan        nan        nan        nan        nan        nan
  1077.3156   58.18832        nan        8.5    8.44366        0.0    2.55654   58.18784        nan   53.69191    0.03963     0.0538     0.0539   29.21436    2.55652      0.918     0.0008       sand        nan        nan        nan        nan        nan
  1077.9252   57.11737        nan        8.5    8.58865        0.0    2.55246   57.11756        nan   47.90219    0.04434      0.064      0.064   34.93866    2.55247        1.0        0.0        nan        nan        nan        nan        nan        nan
  1078.5348  115.41751        nan        8.5    8.43256        0.0    2.38926  115.41587        nan   49.49997     0.0457     0.1986     0.1986   20.90264    2.38937        1.0        0.0        nan        nan        nan        nan        nan        nan
  1079.1444  115.20019        nan        8.5     8.4552        0.0    2.10938  115.20115        nan   64.35126    0.30304        0.3        0.3    0.71351    2.10938        1.0        0.0        nan        nan        nan        nan        nan        nan
