~Version ---------------------------------------------------
VERS.   2.0 : CWLS log ASCII Standard -VERSION 2.0
WRAP.    NO : One line per depth step
DLM . SPACE : Column Data Section Delimiter
~Well ------------------------------------------------------
STRT.m     0.0 : START DEPTH
STOP.m 1282.68 : STOP DEPTH
STEP.m    26.0 : STEP
NULL. -9999.25 : NULL VALUE
COMP.          : COMPANY
WELL.          : WELL
FLD .          : FIELD
LOC .          : LOCATION
PROV.          : PROVINCE
CNTY.          : COUNTY
STAT.          : STATE
CTRY.          : COUNTRY
SRVC.          : SERVICE COMPANY
DATE.          : DATE
UWI .          : UNIQUE WELL ID
API .          : API NUMBER
~Curve Information -----------------------------------------
DEPT       .m    DEPTH : 
AC         .us/ft   AC : 
ACS        .us/ft  ACS : 
BS         .in      BS : 
CALI       .in    CALI : 
CALI_2     .in    CALI : 
DEN        .g/cm3  DEN : 
DT         .us/ft   DT : 
DTS        .us/ft  DTS : 
GR         .gAPI    GR : 
NEU        ._      NEU : 
PHIE       .m3/m3 PHIE : 
PHIT       .m3/m3 PHIT : 
RDEP       .ohm.m RDEP : 
RHOB       .g/cm3 RHOB : 
SWE        ._      SWE : 
VSH        ._      VSH : 
lithology  .           : 
core_phie_1.%          : 
core_phie_2.%          : 
core_phie_3.%          : 
core_phie_4.%          : 
core_phie_5.%          : 
~Params ----------------------------------------------------
~Other -----------------------------------------------------
~ASCII -----------------------------------------------------
# ...
    945.642  116.20816        nan        8.5     8.4401    8.42625    2.19086  116.20995        nan  105.00723    0.36411     0.1737     0.2636    0.96047    2.19085        1.0     0.4209       silt        nan        nan        nan        nan        nan
   946.2516  114.78982        nan        8.5     8.3904    8.39025    2.30276  114.79053        nan   97.93019    0.39083     0.0377     0.2243    2.06148    2.30268        1.0     0.8742      shale        nan        nan        nan        nan        nan
   946.8612  116.53321        nan        8.5    8.41886    8.43656    2.21633  116.53033        nan    94.0677     0.3762     0.1698     0.2624    1.05658    2.21643        1.0      0.434       silt        nan        nan        nan        nan        nan
   947.4708  116.27789        nan        8.5    8.66304    8.71196    2.08508  116.27934        nan   76.59917    0.32805     0.2853     0.2958    0.67285    2.08506        1.0      0.049       sand        nan        nan        nan        nan        nan
   948.0804  117.97931        nan        8.5    9.27616     9.3883    2.11436  117.97857        nan   74.60236    0.33011     0.2906     0.2973    0.69203    2.11438        1.0     0.0314       sand        nan        nan        nan        nan        nan
     948.69  116.17352        nan        8.5    9.54449    9.53188    2.04577  116.17348        nan   75.76369    0.35914     0.2827      0.295     0.7094    2.04579        1.0     0.0575       sand        nan        nan        nan        nan        nan
   949.2996  118.98187        nan        8.5    8.93418    8.81086    2.08642  118.98225        nan   76.59857    0.30886        0.3        0.3    0.82526    2.08639        1.0        0.0        nan        nan        nan        nan        nan        nan
   949.9092  112.46111        nan        8.5    8.56159    8.56458     2.2233  112.46913        nan   82.89616    0.29837      0.208     0.2627    0.97584    2.22319        1.0     0.2562       silt        nan        nan        nan        nan        nan
   950.5188  107.05617        nan        8.5    8.41579    8.40594    2.29314  107.06247        nan   75.46445    0.25382      0.256      0.256    0.94684    2.29337        1.0        0.0        nan        nan        nan        nan        nan        nan
   951.1284  114.71644        nan        8.5    8.41191    8.38945    2.14936  114.71876        nan   90.89374    0.33576     0.2227     0.2777    0.92658    2.14931        1.0     0.2577       silt        nan        nan        nan        nan        nan
    951.738  112.67112        nan        8.5    8.28882    8.27063    2.28555  112.67006        nan  100.10236    0.33998     0.1119     0.2364    1.85412     2.2855     0.9268     0.5833      shale        nan        nan        nan        nan        nan
   952.3476   105.3194        nan        8.5    8.51223    8.52667    2.32263  105.31095        nan   93.88843    0.26318     0.1554     0.2115     2.3967    2.32261     0.8803     0.2625       silt        nan        nan        nan        nan        nan
   952.9572  121.27334        nan        8.5    8.55128    8.60356    2.15342   121.2752        nan   79.00824    0.32463     0.2544     0.2868    0.70718    2.15352        1.0     0.1521       sand        nan        nan        nan        nan        nan
   953.5668  107.04129        nan        8.5    8.79336    8.68327    2.18988  107.05035        nan   75.59396    0.26238     0.2863     0.2863    0.93812    2.18985        1.0        0.0        nan        nan        nan        nan        nan        nan
   954.1764   112.3418        nan        8.5    8.50126    8.49375    2.10515  112.34019        nan   71.99792    0.32252     0.2844     0.2955    0.77804    2.10521        1.0     0.0521       sand        nan        nan        nan        nan        nan
     954.61  113.03058        nan        8.5     8.4845    8.47626    2.12612    113.034        nan   80.24089    0.32122    0.24523     0.2842    0.85728    2.12606        1.0    0.18264       sand        nan        nan        nan        nan        nan
    954.786  107.00227        nan        8.5    8.50272    8.51714     2.1968  107.01152        nan   76.19782    0.29507     0.2457     0.2757    0.78416    2.19671        1.0     0.1408       sand        nan        nan        nan        nan        nan
   955.3956   74.87505        nan        8.5    8.42606       8.43    2.65356   74.88544        nan   57.22142    0.09952        0.0     0.0072    7.44827    2.65348        1.0     0.0339       sand        nan        nan        nan        nan        nan
   956.0052   54.71578        nan        8.5    8.42819    8.43375    2.68463   54.71264        nan   55.65273    0.04974        0.0     0.0006   21.05611     2.6846        1.0     0.0029       sand        nan        nan        nan        nan        nan
   956.6148   76.68573        nan        8.5    8.40996    8.41875     2.5714   76.67358        nan   61.15556    0.06525     0.0573     0.0801    9.04294    2.57158        1.0     0.1066       sand        nan        nan        nan        nan        nan
   957.2244  111.66642        nan        8.5    8.40613    8.41018    2.19336  111.66614        nan   86.30141    0.28038     0.2615     0.2889    1.13622     2.1934     0.9224     0.1282       sand        nan        nan        nan        nan        nan
    957.834  109.20567        nan        8.5    8.38291    8.39125     2.2191  109.20468        nan   91.65258    0.31651     0.2132      0.275    1.17571    2.21909     0.9603     0.2892       silt        nan        nan        nan        nan        nan
   958.4436  110.52544        nan        8.5      8.372    8.36063    2.19306  110.53629        nan   92.03053    0.31273     0.2417     0.2832    1.18742    2.19303     0.9233     0.1943       sand        nan        nan        nan        nan        nan
   959.0532   82.44656        nan        8.5    8.34756    8.35875    2.42997   82.44664        nan   99.25198    0.18917     0.0479     0.1343    4.32434    2.42988        1.0      0.405       silt        nan        nan        nan        nan        nan
   959.6628   96.84477        nan        8.5    8.36289    8.37075    2.30864   96.84255        nan   98.00058    0.23025     0.1685     0.2178    1.86585    2.30861     0.9641     0.2311       silt        0.1       0.06       0.03        nan        0.5
   960.2724   89.38905        nan        8.5    8.34844    8.34458    2.63428   89.39014        nan   66.08748    0.07968        0.0     0.0302   13.89194     2.6342        1.0     0.1415       sand        nan        nan        nan        nan        nan
    960.882   87.92677        nan        8.5    8.35669    8.36063    2.64681   87.92402        nan   66.52631    0.11734        0.0     0.0566   13.83764    2.64683        1.0     0.2653       silt        nan        nan        nan        nan        nan
   961.4916  106.54735        nan        8.5     8.3906      8.385    2.43935  106.54065        nan   85.74838        nan     0.0562     0.1565    3.53994    2.43943        1.0       0.47       silt        nan        nan        nan        nan        nan
   962.1012  113.44762        nan        8.5    8.28209     8.2875    2.30697  113.44862        nan   95.47459    0.38076     0.0658     0.2324    2.24222    2.30705     0.9128     0.7806      shale        nan        nan        nan        nan        nan
   962.7108  113.71944        nan        8.5    8.25998     8.2635    2.28536  113.71957        nan  100.15282    0.30814     0.1594     0.2316    1.71763    2.28531     0.9486     0.3383       silt        nan        nan        nan        nan        nan
   963.3204   114.1255        nan        8.5    8.42601     8.3205    2.33377  114.12682        nan   103.5716    0.34397     0.0714     0.2266    1.65242    2.33383        1.0     0.7272      shale        nan        nan        nan        nan        nan
     963.93   110.5407        nan        8.5    8.28188    8.29687    2.27773  110.53671        nan   83.64675    0.31113     0.1811     0.2523    1.11576    2.27779        1.0     0.3336       silt        nan        nan        nan        nan        nan
