~Version ---------------------------------------------------
VERS.   2.0 : CWLS log ASCII Standard -VERSION 2.0
WRAP.    NO : One line per depth step
DLM . SPACE : Column Data Section Delimiter
~Well ------------------------------------------------------
STRT.m     0.0 : START DEPTH
STOP.m 1282.68 : STOP DEPTH
STEP.m    26.0 : STEP
NULL. -9999.25 : NULL VALUE
COMP.          : COMPANY
WELL.          : WELL
FLD .          : FIELD
LOC .          : LOCATION
PROV.          : PROVINCE
CNTY.          : COUNTY
STAT.          : STATE
CTRY.          : COUNTRY
SRVC.          : SERVICE COMPANY
DATE.          : DATE
UWI .          : UNIQUE WELL ID
API .          : API NUMBER
~Curve Information -----------------------------------------
DEPT       .m    DEPTH : 
AC         .us/ft   AC : 
ACS        .us/ft  ACS : 
BS         .in      BS : 
CALI       .in    CALI : 
CALI_2     .in    CALI : 
DEN        .g/cm3  DEN : 
DT         .us/ft   DT : 
DTS        .us/ft  DTS : 
GR         .gAPI    GR : 
NEU        ._      NEU : 
PHIE       .m3/m3 PHIE : 
PHIT       .m3/m3 PHIT : 
RDEP       .ohm.m RDEP : 
RHOB       .g/cm3 RHOB : 
SWE        ._      SWE : 
VSH        ._      VSH : 
lithology  .           : 
core_phie_1.%          : 
core_phie_2.%          : 
core_phie_3.%          : 
core_phie_4.%          : 
core_phie_5.%          : 
~Params ----------------------------------------------------
~Other -----------------------------------------------------
~ASCII -----------------------------------------------------
# ...
  1098.6516  105.57214        nan        8.5     8.3759    8.36375    2.27951  105.57245        nan   95.27621    0.45353     0.0532     0.2037    1.63665    2.27951        1.0     0.8227      shale        nan        nan        nan        nan        nan
  1099.2612  105.64446        nan        8.5    8.43057    8.43375    2.30331  105.64536        nan   97.65518    0.37587     0.1094     0.2256    1.95189    2.30331      0.856     0.6354      shale        nan        nan        nan        nan        nan
  1099.8708   94.17519        nan        8.5    8.45312    8.46094    2.34354   94.17524        nan   86.56407    0.30502       0.12     0.2041     1.9217    2.34354     0.9368     0.4599       silt        nan        nan        nan        nan        nan
  1100.4804   99.64534        nan        8.5    8.42242    8.42282    2.30181   99.64586        nan   89.42461    0.38247     0.0821      0.215    1.95653    2.30182     0.9156     0.7262      shale        nan        nan        nan        nan        nan
    1101.09  104.73667        nan        8.5    8.45335    8.45625    2.30381  104.73107        nan   98.56956    0.34957     0.1292     0.2333    1.73349    2.30383     0.8696     0.5694      shale        nan        nan        nan        nan        nan
  1101.6996   93.87344        nan        8.5     8.4387    8.43207    2.39543   93.88002        nan   56.48282    0.13909     0.1396     0.1396    2.45932    2.39536        1.0        0.0        nan        nan        nan        nan        nan        nan
  1102.3092  104.15177        nan        8.5    8.43107    8.42625    2.37393  104.14855        nan   52.16302    0.04484      0.201      0.201    5.31074    2.37396        1.0        0.0        nan        nan        nan        nan        nan        nan
  1102.9188  111.98447        nan        8.5     8.4288    8.42875    2.20574  111.98535        nan   65.81926    0.28961     0.2387     0.2761     0.8746    2.20574        1.0     0.2045       silt        nan        nan        nan        nan        nan
  1103.5284  102.14554        nan        8.5    8.44238    8.43937    2.33304  102.14661        nan   86.24297    0.35045      0.088     0.2003    2.60697    2.33299     0.8325     0.6139      shale        nan        nan        nan        nan        nan
   1104.138  103.99221        nan        8.5    8.45393     8.4555    2.42089  103.99111        nan   92.29784    0.27849     0.0523     0.1562    2.06778    2.42088        1.0     0.5678      shale        nan        nan        nan        nan        nan
  1104.7476  112.40348        nan        8.5    8.44842    8.44562    2.27588  112.40402        nan   81.52127    0.34038     0.1668      0.248    0.84955    2.27591        1.0     0.4441       silt        nan        nan        nan        nan        nan
  1105.3572   99.91908        nan        8.5    8.42254    8.44712    2.23619   99.92179        nan   70.51082    0.30585     0.1957     0.2551    0.85787    2.23614        1.0     0.3249       silt        nan        nan        nan        nan        nan
  1105.9668     70.675        nan        8.5    8.48418    8.48297    2.49888   70.67812        nan   74.83256    0.18633      0.035      0.109    6.26351    2.49889        1.0     0.4044       silt        nan        nan        nan        nan        nan
  1106.5764   65.01007        nan        8.5    8.55201       8.58    2.43691   65.01035        nan   57.99323    0.15759     0.1078     0.1156   13.75253    2.43689        1.0     0.0425       sand        nan        nan        nan        nan        nan
   1107.186  103.81628        nan        8.5    8.51213    8.50795    2.26018  103.81353        nan   48.27532    0.17212     0.2388     0.2388   14.68434    2.26015        1.0        0.0        nan        nan        nan        nan        nan        nan
  1107.7956  105.26691        nan        8.5     8.5096    8.51615     2.1919  105.26691        nan   55.49354    0.26684     0.2837     0.2855    1.61002    2.19189     0.7304     0.0097       sand        nan        nan        nan        nan        nan
  1108.4052  103.59459        nan        8.5    8.50424    8.50375    2.24415  103.59656        nan   58.84853    0.26219     0.2363     0.2527    1.30846    2.24414     0.9186     0.0896       sand        nan        nan        nan        nan        nan
  1109.0148  111.00989        nan        8.5    8.48519    8.49469    2.34716  111.00849        nan   55.69381    0.27745     0.1974     0.1974    0.68064    2.34718        1.0        0.0        nan        nan        nan        nan        nan        nan
  1109.6244  105.71286        nan        8.5    8.41351    8.40804    2.13653  105.71287        nan   55.32803    0.31855     0.2997     0.2999    0.74282    2.13654        1.0     0.0009       sand        nan        nan        nan        nan        nan
   1110.234  105.22166        nan        8.5    8.42589    8.43606    2.22171  105.22231        nan   57.83088    0.26721     0.2445     0.2571    0.77207     2.2217        1.0     0.0689       sand        nan        nan        nan        nan        nan
  1110.8436   88.42164        nan        8.5    8.46016    8.46729     2.3233   88.42066        nan    55.2556    0.12194     0.2145     0.2145    9.60738    2.32332        1.0        0.0        nan        nan        nan        nan        nan        nan
  1111.4532   96.38793        nan        8.5    8.46594    8.45562    2.40171   96.38772        nan   44.31103    0.09609     0.1446     0.1446     1000.0    2.40168        1.0        0.0        nan        nan        nan        nan        nan        nan
  1112.0628   95.91761        nan        8.5    8.45154    8.45411    2.46002    95.9174        nan    50.8182     0.1322     0.1399     0.1399    4.50515    2.46007     0.8885        0.0        nan        nan        nan        nan        nan        nan
  1112.6724  111.50562        nan        8.5    8.41529     8.4125    2.14222  111.50594        nan   63.23495    0.30847     0.2773     0.2912    0.77409    2.14224        1.0     0.0755       sand        nan        nan        nan        nan        nan
   1113.282  103.23253        nan        8.5    8.57934    8.60475    2.36007  103.23309        nan   76.20238    0.25322     0.1201     0.1732    1.76278    2.36005        1.0     0.2904       silt        nan        nan        nan        nan        nan
  1113.8916  105.46367        nan        8.5     8.4857      8.493    2.22573  105.46365        nan   57.71727    0.15723     0.2814     0.2814    0.98451    2.22575     0.9445        0.0        nan        nan        nan        nan        nan        nan
  1114.5012  110.06055        nan        8.5     8.4312    8.43125    2.16521  110.06027        nan   61.11979     0.2985     0.2792     0.2919    0.79252     2.1652        1.0     0.0693       sand        nan        nan        nan        nan        nan
  1115.1108  107.99487        nan        8.5    8.44909    8.45625    2.34898  107.99507        nan   84.59907    0.34694     0.1212     0.1939    1.87105    2.34897     0.8793      0.596      shale        nan        nan        nan        nan        nan
  1115.7204  108.87437        nan        8.5    8.51246    8.52042    2.41326  108.87338        nan   97.81591     0.4379     0.0379     0.1445    2.09618    2.41324        1.0     0.8735      shale        nan        nan        nan        nan        nan
    1116.33  109.76907        nan        8.5    8.43446    8.43429    2.46916  109.76923        nan   92.81967    0.42912      0.041     0.1316     2.7687    2.46915        1.0     0.7425      shale        nan        nan        nan        nan        nan
  1116.9396   110.0762        nan        8.5    8.40685    8.41693    2.42321   110.0759        nan   88.88295    0.45362     0.0813     0.1637    3.15768    2.42321     0.7807     0.6752      shale        nan        nan        nan        nan        nan
  1117.5492  111.11909        nan        8.5    8.40218      8.405    2.42702  111.11919        nan   92.44759     0.4278     0.0685     0.1607    3.14889    2.42702     0.7945     0.7561      shale        nan        nan        nan        nan        nan
