~Version ---------------------------------------------------
VERS.   2.0 : CWLS log ASCII Standard -VERSION 2.0
WRAP.    NO : One line per depth step
DLM . SPACE : Column Data Section Delimiter
~Well ------------------------------------------------------
STRT.m     0.0 : START DEPTH
STOP.m 1282.68 : STOP DEPTH
STEP.m    26.0 : STEP
NULL. -9999.25 : NULL VALUE
COMP.          : COMPANY
WELL.          : WELL
FLD .          : FIELD
LOC .          : LOCATION
PROV.          : PROVINCE
CNTY.          : COUNTY
STAT.          : STATE
CTRY.          : COUNTRY
SRVC.          : SERVICE COMPANY
DATE.          : DATE
UWI .          : UNIQUE WELL ID
API .          : API NUMBER
~Curve Information -----------------------------------------
DEPT       .m    DEPTH : 
AC         .us/ft   AC : 
ACS        .us/ft  ACS : 
BS         .in      BS : 
CALI       .in    CALI : 
CALI_2     .in    CALI : 
DEN        .g/cm3  DEN : 
DT         .us/ft   DT : 
DTS        .us/ft  DTS : 
GR         .gAPI    GR : 
NEU        ._      NEU : 
PHIE       .m3/m3 PHIE : 
PHIT       .m3/m3 PHIT : 
RDEP       .ohm.m RDEP : 
RHOB       .g/cm3 RHOB : 
SWE        ._      SWE : 
VSH        ._      VSH : 
lithology  .           : 
core_phie_1.%          : 
core_phie_2.%          : 
core_phie_3.%          : 
core_phie_4.%          : 
core_phie_5.%          : 
~Params ----------------------------------------------------
~Other -----------------------------------------------------
~ASCII -----------------------------------------------------
# ...
   888.3396  119.92556        nan        8.5       8.46       8.46    2.37402  119.92602        nan   98.94221    0.42747        nan        nan    2.42954    2.37401        nan        nan        nan        nan        nan        nan        nan        nan
   888.9492  118.16935        nan        8.5    8.42878      8.425    2.37118  118.16944        nan  102.52079    0.45967        nan        nan    2.50069    2.37117        nan        nan        nan        nan        nan        nan        nan        nan
   889.5588  118.82146        nan        8.5    8.41851    8.41641    2.35157  118.82143        nan   105.9757    0.50256        nan        nan    2.55657    2.35159        nan        nan        nan        nan        nan        nan        nan        nan
   890.1684  122.02112        nan        8.5    8.40308    8.41625    2.36877  122.01483        nan  101.03304    0.49881        nan        nan    2.39539    2.36875        nan        nan        nan        nan        nan        nan        nan        nan
    890.778  120.17358        nan        8.5    8.39732    8.39875    2.37016  120.17922        nan  101.87519    0.46854        nan        nan    2.47417    2.37015        nan        nan        nan        nan        nan        nan        nan        nan
   891.3876  121.29034        nan        8.5    8.46173       8.46    2.35185  121.29037        nan  102.80236    0.49742        nan        nan    2.59488    2.35187        nan        nan        nan        nan        nan        nan        nan        nan
   891.9972  120.03252        nan        8.5    8.42654    8.41286    2.31371   120.0328        nan  105.05916    0.49214        nan        nan    2.63636    2.31371        nan        nan        nan        nan        nan        nan        nan        nan
   892.6068  117.66409        nan        8.5    8.41382    8.41425    2.32125   117.6648        nan  112.61971    0.46231        nan        nan    2.63376    2.32123        nan        nan        nan        nan        nan        nan        nan        nan
   893.2164  119.78666        nan        8.5    8.39183    8.38275    2.33544  119.78748        nan  110.11036    0.47133        nan        nan    2.54454    2.33542        nan        nan        nan        nan        nan        nan        nan        nan
    893.826  119.19117        nan        8.5    8.45293    8.44875    2.36582  119.19315        nan  105.46684    0.49789        nan        nan    2.58849    2.36584        nan        nan        nan        nan        nan        nan        nan        nan
   894.4356  119.13624        nan        8.5    8.38377      8.388    2.36515  119.13474        nan  118.76533    0.47628        nan        nan    2.57652    2.36513        nan        nan        nan        nan        nan        nan        nan        nan
   895.0452  119.28386        nan        8.5    8.42091     8.4675     2.3659  119.28506        nan  111.82923    0.46275        nan        nan    2.40294    2.36593        nan        nan        nan        nan        nan        nan        nan        nan
   895.6548  116.78605        nan        8.5    8.41659    8.42437    2.34928   116.7874        nan  117.86678    0.45154        nan        nan     2.4412    2.34927        nan        nan        nan        nan        nan        nan        nan        nan
   896.2644  113.48183        nan        8.5    8.47483    8.47071     2.4332  113.48587        nan  117.23337    0.44387        nan        nan    2.01042    2.43312        nan        nan        nan        nan        nan        nan        nan        nan
     896.38  113.21165        nan        8.5    8.45177    8.43793    2.44312   113.2099        nan  117.70893    0.45532        nan        nan     2.0218    2.44313        nan        nan        nan        nan        nan        nan        nan        nan
    896.874   117.8828        nan        8.5    8.48083    8.48482    2.36691  117.88222        nan  108.15749    0.35124        nan        nan    1.89149    2.36694        nan        nan        nan        nan        nan        nan        nan        nan
   897.4836  115.99376        nan        8.5    8.50101    8.50438    2.37183   115.9949        nan   96.45518    0.34095        nan        nan    2.14159     2.3719        nan        nan        nan        nan        nan        nan        nan        nan
   898.0932   114.9208        nan        8.5    8.39582    8.39875    2.32853  114.91946        nan  119.91972    0.44959        nan        nan    2.11262    2.32852        nan        nan        nan        nan        nan        nan        nan        nan
   898.7028  114.21245        nan        8.5    8.29678    8.30362    2.35454  114.21207        nan  115.73012    0.41248        nan        nan    2.02036     2.3545        nan        nan        nan        nan        nan        nan        nan        nan
   899.3124  107.91668        nan        8.5     8.4808    8.50042    2.40302  107.91906        nan  103.01596    0.35107        nan        nan    2.12699    2.40293        nan        nan        nan        nan        nan        nan        nan        nan
    899.922  107.84924        nan        8.5    8.40375    8.38775    2.50826  107.84415        nan   104.9322    0.33624        nan        nan    2.67802    2.50839        nan        nan        nan        nan        nan        nan        nan        nan
   900.5316  110.12104        nan        8.5    8.45838    8.46838    2.43338  110.11856        nan  104.21273    0.34816        nan        nan    2.49841    2.43333        nan        nan        nan        nan        nan        nan        nan        nan
   901.1412  114.80573        nan        8.5     8.5008     8.4976     2.4181  114.80563        nan  147.10382    0.38927        nan        nan     2.4324    2.41822        nan        nan        nan        nan        nan        nan        nan        nan
   901.7508  117.51462        nan        8.5     8.5366    8.50402     2.5228  117.51196        nan   91.15876    0.17091        nan        nan    7.13965    2.52263        nan        nan        nan        nan        nan        nan        nan        nan
   902.3604  121.45771        nan        8.5    8.52113    8.51625    2.30483  121.45959        nan   53.09454     0.0874     0.2566     0.2566    2.78149     2.3052     0.6708        0.0        nan        nan        nan        nan        nan        nan
     902.97  117.52917        nan        8.5    8.59058    8.61539    2.11684  117.52506        nan   56.71737    0.30811     0.2871     0.2963    0.68177    2.11678        1.0     0.0429       sand        nan        nan        nan        nan        nan
   903.5796  119.22933        nan        8.5    8.70739      8.716    2.12049  119.22854        nan   62.72497    0.30035        0.3        0.3    0.64106    2.12051        1.0        0.0        nan        nan        nan        nan        nan        nan
   904.1892  116.83242        nan        8.5    8.62426    8.57767    2.11245  116.83253        nan    58.3714    0.31576     0.2928     0.2979    0.65962    2.11246        1.0     0.0239       sand        nan        nan        nan        nan        nan
   904.7988   113.0854        nan        8.5    9.04246    9.07971    2.13193  113.08565        nan   50.16273    0.30443        0.3        0.3    0.67072    2.13194        1.0        0.0        nan        nan        nan        nan        nan        nan
   905.4084  112.28642        nan        8.5    8.89967    8.84125    2.13433   112.2906        nan   59.79192    0.26808        0.3        0.3    0.68119    2.13435        1.0        0.0        nan        nan        nan        nan        nan        nan
    906.018  113.99741        nan        8.5     9.0771     9.0575    2.10543  113.99525        nan   58.34089    0.30679        0.3        0.3    0.68428    2.10542        1.0        0.0        nan        nan        nan        nan        nan        nan
   906.6276  117.07195        nan        8.5    9.26729    9.43625    2.12831  117.07169        nan   65.64369    0.33339     0.2664     0.2903     0.6684    2.12825        1.0      0.112       sand        nan        nan        nan        nan        nan
